$GPGSV,4,1,16,32,68,084,31,31,10,084,28,01,63,123,27,17,47,285,23*75
$GPGSV,4,2,16,14,17,036,22,11,39,137,20,20,74,212,17,04,02,289,*70
$GPGSV,4,3,16,12,01,000,,23,18,177,,28,08,248,,30,,,*4D
$GPGSV,4,4,16,29,,,,27,,,,26,,,,25,,,*73
$GPGGA,130550.3,5558.427761,N,00309.844236,W,1,07,1.6,24.2,M,48.0,M,,*7E
$GPVTG,305.6,T,311.1,M,0.0,N,0.0,K,A*21
$GPRMC,130550.3,A,5558.427761,N,00309.844236,W,0.0,305.6,060112,5.6,W,A*0A
$GPGSA,A,3,01,11,14,17,20,31,32,,,,,,2.7,1.6,2.1*30
$GPGSV,4,1,16,32,68,084,31,14,17,036,30,17,47,285,29,31,10,084,28*7B
$GPGSV,4,2,16,01,63,123,27,11,39,137,21,20,74,212,16,04,02,289,*77
$GPGSV,4,3,16,12,01,000,,23,18,177,,28,08,248,,30,,,*4D
$GPGSV,4,4,16,29,,,,27,,,,26,,,,25,,,*73
$GPGGA,130551.3,5558.427863,N,00309.844638,W,1,07,1.6,24.2,M,48.0,M,,*78
$GPVTG,294.4,T,299.9,M,1.7,N,3.2,K,A*24
$GPRMC,130551.3,A,5558.427863,N,00309.844638,W,1.7,294.4,060112,5.6,W,A*01
$GPGSA,A,3,01,11,14,17,20,31,32,,,,,,2.7,1.6,2.1*30
$GPGSV,4,1,16,17,47,285,33,14,17,036,31,01,63,123,28,32,68,084,28*72
$GPGSV,4,2,16,31,10,084,27,11,39,137,20,20,74,212,18,12,01,000,*74
$GPGSV,4,3,16,28,08,248,,30,,,,29,,,,27,,,*48
$GPGSV,4,4,16,26,,,,25,,,,24,,,,22,,,*7B
$GPGGA,130552.3,5558.429835,N,00309.849908,W,1,07,1.6,23.8,M,48.0,M,,*7A
$GPVTG,300.7,T,306.3,M,2.1,N,3.9,K,A*28
$GPRMC,130552.3,A,5558.429835,N,00309.849908,W,2.1,300.7,060112,5.6,W,A*04
$GPGSA,A,3,01,11,14,17,20,31,32,,,,,,2.7,1.6,2.1*30
$GPGSV,4,1,16,32,68,084,34,17,47,285,33,31,10,084,33,14,17,036,31*7E
$GPGSV,4,2,16,01,63,123,27,11,39,137,23,20,74,212,19,04,02,289,*7A
$GPGSV,4,3,16,12,01,000,,28,08,248,,30,,,,29,,,*7F
$GPGSV,4,4,16,27,,,,26,,,,25,,,,24,,,*7E
$GPGGA,130553.3,5558.433272,N,00309.855153,W,1,07,1.6,24.2,M,48.0,M,,*7F
$GPVTG,308.1,T,313.7,M,2.0,N,3.7,K,A*29
$GPRMC,130553.3,A,5558.433272,N,00309.855153,W,2.0,308.1,060112,5.6,W,A*03
$GPGSA,A,3,01,11,14,17,20,31,32,,,,,,2.7,1.6,2.1*30
$GPGSV,4,1,16,32,68,084,36,17,47,285,32,01,63,123,28,14,17,036,25*79
$GPGSV,4,2,16,11,39,137,25,31,10,084,25,20,74,212,17,04,02,289,*7B
$GPGSV,4,3,16,12,01,000,,28,08,248,,30,,,,29,,,*7F
$GPGSV,4,4,16,27,,,,26,,,,25,,,,24,,,*7E
$GPGGA,130554.3,5558.434062,N,00309.856265,W,1,07,1.6,23.7,M,48.0,M,,*7B
$GPVTG,305.7,T,311.3,M,2.1,N,3.9,K,A*2B
$GPRMC,130554.3,A,5558.434062,N,00309.856265,W,2.1,305.7,060112,5.6,W,A*0F
$GPGSA,A,3,01,11,14,17,20,31,32,,,,,,2.7,1.6,2.1*30
$GPGSV,4,1,16,32,68,084,34,17,47,285,34,01,63,123,29,11,39,137,25*75
$GPGSV,4,2,16,20,74,212,23,14,17,036,23,31,10,084,20,04,02,289,*76
$GPGSV,4,3,16,12,01,000,,28,08,248,,30,,,,29,,,*7F
$GPGSV,4,4,16,27,,,,26,,,,25,,,,24,,,*7E
$GPGGA,130555.3,5558.434880,N,00309.857438,W,1,07,1.6,23.6,M,48.0,M,,*70
$GPVTG,300.8,T,306.3,M,1.8,N,3.3,K,A*27
$GPRMC,130555.3,A,5558.434880,N,00309.857438,W,1.8,300.8,060112,5.6,W,A*05
$GPGSA,A,3,01,11,14,17,20,31,32,,,,,,2.7,1.6,2.1*30
$GPGSV,4,1,16,17,47,285,35,32,68,084,33,20,74,212,31,11,39,137,25*7E
$GPGSV,4,2,16,14,17,036,25,01,63,123,24,31,10,084,22,23,18,177,20*7F
$GPGSV,4,3,16,04,02,289,,12,01,000,,28,08,248,,30,,,*41
$GPGSV,4,4,16,29,,,,27,,,,26,,,,25,,,*73
$GPGGA,130556.3,5558.434122,N,00309.859747,W,1,07,1.2,23.1,M,48.0,M,,*74
$GPVTG,279.4,T,284.9,M,1.9,N,3.5,K,A*22
$GPRMC,130556.3,A,5558.434122,N,00309.859747,W,1.9,279.4,060112,5.6,W,A*00
$GPGSA,A,3,01,11,14,17,20,31,32,,,,,,1.8,1.2,1.4*3E
$GPGSV,4,1,16,32,68,084,34,17,47,285,33,20,74,212,29,14,17,036,23*79
$GPGSV,4,2,16,23,18,177,22,31,10,084,21,11,39,137,20,01,63,123,20*76
$GPGSV,4,3,16,04,02,289,,12,01,000,,28,08,248,,30,,,*41
$GPGSV,4,4,16,29,,,,27,,,,26,,,,25,,,*73
$GPGGA,130557.3,5558.433758,N,00309.861350,W,1,08,1.2,23.4,M,48.0,M,,*7A
$GPVTG,264.1,T,269.7,M,1.8,N,3.3,K,A*21
$GPRMC,130557.3,A,5558.433758,N,00309.861350,W,1.8,264.1,060112,5.6,W,A*0C
$GPGSA,A,3,01,11,14,17,20,23,31,32,,,,,1.8,1.2,1.4*3F
$GPGSV,4,1,16,32,68,084,34,20,74,212,30,23,18,177,27,17,47,285,26*7E
$GPGSV,4,2,16,14,17,036,26,31,10,084,22,01,63,123,19,11,39,137,18*7F
$GPGSV,4,3,16,28,08,248,15,04,02,289,,12,01,000,,30,,,*45
$GPGSV,4,4,16,29,,,,27,,,,26,,,,25,,,*73
$GPGGA,130558.3,5558.432746,N,00309.862462,W,1,09,1.0,23.9,M,48.0,M,,*70
$GPVTG,249.0,T,254.6,M,1.8,N,3.3,K,A*20
$GPRMC,130558.3,A,5558.432746,N,00309.862462,W,1.8,249.0,060112,5.6,W,A*06
$GPGSA,A,3,01,11,14,17,20,23,28,31,32,,,,1.4,1.0,1.1*3E
$GPGSV,4,1,16,20,74,212,31,32,68,084,30,14,17,036,30,23,18,177,25*72
$GPGSV,4,2,16,01,63,123,20,17,47,285,19,31,10,084,18,11,39,137,18*7C
$GPGSV,4,3,16,28,08,248,16,04,02,289,,12,01,000,,30,,,*46
$GPGSV,4,4,16,29,,,,27,,,,26,,,,25,,,*73
$GPGGA,130559.3,5558.431956,N,00309.863022,W,1,09,1.0,24.2,M,48.0,M,,*70
$GPVTG,227.2,T,232.7,M,1.9,N,3.6,K,A*2F
$GPRMC,130559.3,A,5558.431956,N,00309.863022,W,1.9,227.2,060112,5.6,W,A*01
$GPGSA,A,3,01,11,14,17,20,23,28,31,32,,,,1.4,1.0,1.1*3E
$GPGSV,4,1,16,20,74,212,33,32,68,084,31,14,17,036,28,17,47,285,27*79
$GPGSV,4,2,16,23,18,177,26,01,63,123,25,28,08,248,20,31,10,084,19*7F
$GPGSV,4,3,16,11,39,137,18,04,02,289,,12,01,000,,30,,,*4B
$GPGSV,4,4,16,29,,,,27,,,,26,,,,25,,,*73
$GPGGA,130600.3,5558.431306,N,00309.863238,W,1,09,1.0,23.6,M,48.0,M,,*7A
$GPVTG,207.8,T,213.4,M,1.9,N,3.6,K,A*27
$GPRMC,130600.3,A,5558.431306,N,00309.863238,W,1.9,207.8,060112,5.6,W,A*00
$GPGSA,A,3,01,11,14,17,20,23,28,31,32,,,,1.4,1.0,1.1*3E
$GPGSV,4,1,16,32,68,084,33,20,74,212,32,17,47,285,27,23,18,177,24*79
$GPGSV,4,2,16,01,63,123,24,14,17,036,23,28,08,248,20,31,10,084,19*74
$GPGSV,4,3,16,11,39,137,18,04,02,289,,12,01,000,,30,,,*4B
$GPGSV,4,4,16,29,,,,27,,,,26,,,,25,,,*73
$GPGGA,130601.3,5558.431002,N,00309.863715,W,1,09,1.0,23.4,M,48.0,M,,*74
$GPVTG,206.3,T,211.9,M,1.9,N,3.6,K,A*22
$GPRMC,130601.3,A,5558.431002,N,00309.863715,W,1.9,206.3,060112,5.6,W,A*06
$GPGSA,A,3,01,11,14,17,20,23,28,31,32,,,,1.4,1.0,1.1*3E
$GPGSV,4,1,16,32,68,084,33,01,63,123,30,20,74,212,30,23,18,177,27*70
$GPGSV,4,2,16,17,47,285,27,14,17,036,26,31,10,084,19,11,39,137,16*7A
$GPGSV,4,3,16,28,08,248,16,12,01,000,,30,,,,29,,,*78
$GPGSV,4,4,16,27,,,,26,,,,25,,,,24,,,*7E
$GPGGA,130602.3,5558.430517,N,00309.863730,W,1,09,1.0,23.6,M,48.0,M,,*72
$GPVTG,203.1,T,208.7,M,2.1,N,3.8,K,A*26
$GPRMC,130602.3,A,5558.430517,N,00309.863730,W,2.1,203.1,060112,5.6,W,A*0E
$GPGSA,A,3,01,11,14,17,20,23,28,31,32,,,,1.4,1.0,1.1*3E
$GPGSV,4,1,16,32,68,084,34,20,74,212,32,23,18,177,29,14,17,036,29*71
$GPGSV,4,2,16,01,63,123,28,28,08,248,23,17,47,285,23,31,10,084,20*7D
$GPGSV,4,3,16,11,39,137,16,12,01,000,,30,,,,29,,,*7B
$GPGSV,4,4,16,27,,,,26,,,,25,,,,24,,,*7E
$GPGGA,130603.3,5558.429146,N,00309.866606,W,1,09,1.0,22.3,M,48.0,M,,*7E
$GPVTG,229.5,T,235.1,M,3.0,N,5.5,K,A*29
$GPRMC,130603.3,A,5558.429146,N,00309.866606,W,3.0,229.5,060112,5.6,W,A*0A
$GPGSA,A,3,01,11,14,17,20,23,28,31,32,,,,1.4,1.0,1.1*3E
$GPGSV,4,1,16,01,62,123,33,32,67,082,33,23,19,177,31,20,76,209,31*74
$GPGSV,4,2,16,17,47,282,26,14,16,036,23,28,07,247,22,31,10,082,18*7B
$GPGSV,4,3,16,11,38,137,16,12,02,358,,30,,,,29,,,*77
$GPGSV,4,4,16,27,,,,26,,,,25,,,,24,,,*7E
$GPGGA,130604.3,5558.427665,N,00309.867396,W,1,09,1.0,21.3,M,48.0,M,,*7F
$GPVTG,225.2,T,230.8,M,2.7,N,5.0,K,A*2D
$GPRMC,130604.3,A,5558.427665,N,00309.867396,W,2.7,225.2,060112,5.6,W,A*05
$GPGSA,A,3,01,11,14,17,20,23,28,31,32,,,,1.4,1.0,1.1*3E
$GPGSV,4,1,16,01,63,123,36,32,68,084,32,20,74,212,32,14,17,036,29*74
$GPGSV,4,2,16,23,18,177,28,17,47,285,27,28,08,248,24,31,10,084,17*77
$GPGSV,4,3,16,11,39,137,16,04,02,289,,12,01,000,,30,,,*45
$GPGSV,4,4,16,29,,,,27,,,,26,,,,25,,,*73
$GPGGA,130605.3,5558.427582,N,00309.868303,W,1,09,1.0,20.2,M,48.0,M,,*77
$GPVTG,227.1,T,232.7,M,2.7,N,4.9,K,A*29
$GPRMC,130605.3,A,5558.427582,N,00309.868303,W,2.7,227.1,060112,5.6,W,A*0C
$GPGSA,A,3,01,11,14,17,20,23,28,31,32,,,,1.4,1.0,1.1*3E
$GPGSV,4,1,16,17,47,285,39,23,18,177,33,01,63,123,31,04,02,289,31*73
$GPGSV,4,2,16,32,68,084,29,20,74,212,29,14,17,036,25,28,08,248,20*74
$GPGSV,4,3,16,31,10,084,17,11,39,137,17,12,01,000,,30,,,*48
$GPGSV,4,4,16,29,,,,27,,,,26,,,,25,,,*73
$GPGGA,130606.3,5558.426697,N,00309.870447,W,1,10,0.9,19.8,M,48.0,M,,*7C
$GPVTG,225.8,T,231.4,M,2.9,N,5.4,K,A*20
$GPRMC,130606.3,A,5558.426697,N,00309.870447,W,2.9,225.8,060112,5.6,W,A*02
$GPGSA,A,3,01,04,11,14,17,20,23,28,31,32,,,1.3,0.9,1.0*34
$GPGSV,4,1,16,17,47,285,35,23,18,177,32,20,74,212,31,01,63,123,30*7A
$GPGSV,4,2,16,04,02,289,29,32,68,084,27,28,08,248,20,14,17,036,19*70
$GPGSV,4,3,16,11,39,137,19,31,10,084,17,12,01,000,16,30,,,*41
$GPGSV,4,4,16,29,,,,27,,,,26,,,,25,,,*73
$GPGGA,130607.3,5558.425928,N,00309.872229,W,1,10,0.9,19.0,M,48.0,M,,*71
$GPVTG,232.7,T,238.3,M,3.0,N,5.6,K,A*2D
$GPRMC,130607.3,A,5558.425928,N,00309.872229,W,3.0,232.7,060112,5.6,W,A*06
$GPGSA,A,3,01,04,11,14,17,20,23,28,31,32,,,1.3,0.9,1.0*34
$GPGSV,4,1,16,17,47,285,36,23,18,177,32,20,74,212,32,01,63,123,32*78
$GPGSV,4,2,16,04,02,289,25,32,68,084,20,28,08,248,20,11,39,137,20*78
$GPGSV,4,3,16,14,17,036,19,31,10,084,19,12,01,000,15,30,,,*45
$GPGSV,4,4,16,29,,,,27,,,,26,,,,25,,,*73
$GPGGA,130608.3,5558.425494,N,00309.874688,W,1,10,0.9,18.3,M,48.0,M,,*7F
$GPVTG,243.9,T,249.5,M,3.2,N,6.0,K,A*22
$GPRMC,130608.3,A,5558.425494,N,00309.874688,W,3.2,243.9,060112,5.6,W,A*00
$GPGSA,A,3,01,04,11,14,17,20,23,28,31,32,,,1.3,0.9,1.0*34
$GPGSV,4,1,16,17,47,285,36,01,63,123,33,23,18,177,29,20,74,212,28*78
$GPGSV,4,2,16,04,02,289,23,11,39,137,23,14,17,036,22,31,10,084,20*79
$GPGSV,4,3,16,28,08,248,19,32,68,084,19,12,01,000,14,30,,,*42
$GPGSV,4,4,16,29,,,,27,,,,26,,,,25,,,*73
$GPGGA,130609.3,5558.425068,N,00309.876471,W,1,10,0.9,17.9,M,48.0,M,,*7A
$GPVTG,247.3,T,252.9,M,3.4,N,6.2,K,A*2E
$GPRMC,130609.3,A,5558.425068,N,00309.876471,W,3.4,247.3,060112,5.6,W,A*08
$GPGSA,A,3,01,04,11,14,17,20,23,28,31,32,,,1.3,0.9,1.0*34
$GPGSV,4,1,16,17,47,285,35,01,63,123,33,23,18,177,30,28,08,248,26*71
$GPGSV,4,2,16,20,74,212,25,04,02,289,22,11,39,137,21,14,17,036,20*72
$GPGSV,4,3,16,31,10,084,19,32,68,084,18,12,01,000,14,30,,,*40
$GPGSV,4,4,16,29,,,,27,,,,26,,,,25,,,*73
$GPGGA,130610.3,5558.425290,N,00309.877235,W,1,10,0.9,18.4,M,48.0,M,,*72
$GPVTG,251.2,T,256.8,M,2.6,N,4.9,K,A*27
$GPRMC,130610.3,A,5558.425290,N,00309.877235,W,2.6,251.2,060112,5.6,W,A*07
$GPGSA,A,3,01,04,11,14,17,20,23,28,31,32,,,1.3,0.9,1.0*34
$GPGSV,4,1,16,17,47,285,35,01,63,123,33,23,18,177,32,20,74,212,30*78
$GPGSV,4,2,16,28,08,248,26,04,02,289,24,32,68,084,20,11,39,137,20*7F
$GPGSV,4,3,16,31,10,084,19,14,17,036,18,12,01,000,14,30,,,*45
$GPGSV,4,4,16,29,,,,27,,,,26,,,,25,,,*73
$GPGGA,130611.3,5558.425540,N,00309.879739,W,1,08,0.9,18.5,M,48.0,M,,*76
$GPVTG,261.8,T,267.4,M,3.0,N,5.6,K,A*29
$GPRMC,130611.3,A,5558.425540,N,00309.879739,W,3.0,261.8,060112,5.6,W,A*05
$GPGSA,A,3,01,04,14,17,20,23,28,32,,,,,1.3,0.9,1.0*36
$GPGSV,4,1,16,23,18,177,33,17,47,285,33,01,63,123,32,20,74,212,29*76
$GPGSV,4,2,16,11,39,137,25,04,02,289,23,28,08,248,20,14,17,036,17*7A
$GPGSV,4,3,16,32,68,084,17,31,10,084,17,12,01,000,14,30,,,*41
$GPGSV,4,4,16,29,,,,27,,,,26,,,,25,,,*73
$GPGGA,130612.3,5558.426177,N,00309.880517,W,1,10,0.9,18.3,M,48.0,M,,*71
$GPVTG,279.5,T,285.1,M,2.2,N,4.1,K,A*21
$GPRMC,130612.3,A,5558.426177,N,00309.880517,W,2.2,279.5,060112,5.6,W,A*0A
$GPGSA,A,3,01,04,11,14,17,20,23,28,31,32,,,1.3,0.9,1.0*34
$GPGSV,4,1,16,01,63,123,34,11,39,137,31,17,47,285,30,23,18,177,30*76
$GPGSV,4,2,16,20,74,212,27,04,02,289,26,14,17,036,18,28,08,248,18*76
$GPGSV,4,3,16,32,68,084,18,31,10,084,17,12,01,000,14,30,,,*4E
$GPGSV,4,4,16,29,,,,27,,,,26,,,,25,,,*73
$GPGGA,130613.3,5558.425790,N,00309.881381,W,1,10,0.9,19.0,M,48.0,M,,*76
$GPVTG,275.3,T,280.8,M,1.9,N,3.5,K,A*2C
$GPRMC,130613.3,A,5558.425790,N,00309.881381,W,1.9,275.3,060112,5.6,W,A*0D
$GPGSA,A,3,01,04,11,14,17,20,23,28,31,32,,,1.3,0.9,1.0*34
$GPGSV,4,1,16,23,18,177,33,11,39,137,31,01,63,123,31,17,47,285,31*71
$GPGSV,4,2,16,20,74,212,27,04,02,289,27,14,17,036,20,32,68,084,19*72
$GPGSV,4,3,16,28,08,248,18,31,10,084,16,12,01,000,13,30,,,*47
$GPGSV,4,4,16,29,,,,27,,,,26,,,,25,,,*73
$GPGGA,130614.3,5558.425997,N,00309.883087,W,1,10,0.9,19.2,M,48.0,M,,*7D
$GPVTG,284.7,T,290.3,M,2.0,N,3.8,K,A*2B
$GPRMC,130614.3,A,5558.425997,N,00309.883087,W,2.0,284.7,060112,5.6,W,A*04
$GPGSA,A,3,01,04,11,14,17,20,23,28,31,32,,,1.3,0.9,1.0*34
$GPGSV,4,1,16,17,47,285,33,23,18,177,33,01,63,123,32,11,39,137,29*79
$GPGSV,4,2,16,04,02,289,24,20,74,212,22,28,08,248,18,14,17,036,18*71
$GPGSV,4,3,16,31,10,084,16,12,01,000,13,30,,,,29,,,*79
$GPGSV,4,4,16,27,,,,26,,,,25,,,,24,,,*7E
$GPGGA,130615.3,5558.426306,N,00309.884981,W,1,10,0.9,19.8,M,48.0,M,,*7F
$GPVTG,288.9,T,294.4,M,2.3,N,4.2,K,A*24
$GPRMC,130615.3,A,5558.426306,N,00309.884981,W,2.3,288.9,060112,5.6,W,A*0D
$GPGSA,A,3,01,04,11,14,17,20,23,28,31,32,,,1.4,0.9,1.1*32
$GPGSV,4,1,16,17,47,285,34,23,18,177,34,01,63,123,29,11,39,137,27*7D
$GPGSV,4,2,16,04,02,289,26,20,74,212,26,32,68,084,19,28,08,248,18*73
$GPGSV,4,3,16,14,17,036,18,31,10,084,16,12,01,000,12,30,,,*4C
$GPGSV,4,4,16,29,,,,27,,,,26,,,,25,,,*73
$GPGGA,130616.3,5558.426352,N,00309.886073,W,1,10,0.9,19.3,M,48.0,M,,*70
$GPVTG,291.2,T,296.8,M,2.0,N,3.7,K,A*28
$GPRMC,130616.3,A,5558.426352,N,00309.886073,W,2.0,291.2,060112,5.6,W,A*09
$GPGSA,A,3,01,04,11,14,17,20,23,28,31,32,,,1.3,0.9,1.0*34
$GPGSV,4,1,16,17,47,285,37,01,63,123,32,11,39,137,30,23,18,177,29*7E
$GPGSV,4,2,16,20,74,212,26,04,02,289,26,14,17,036,21,28,08,248,18*7D
$GPGSV,4,3,16,32,68,084,18,31,10,084,16,12,01,000,12,30,,,*49
$GPGSV,4,4,16,29,,,,27,,,,26,,,,25,,,*73
$GPGGA,130617.3,5558.427000,N,00309.888195,W,1,10,0.9,19.9,M,48.0,M,,*79
$GPVTG,293.9,T,299.5,M,2.6,N,4.7,K,A*22
$GPRMC,130617.3,A,5558.427000,N,00309.888195,W,2.6,293.9,060112,5.6,W,A*05
$GPGSA,A,3,01,04,11,14,17,20,23,28,31,32,,,1.3,0.9,1.0*34
$GPGSV,4,1,16,17,47,285,37,01,63,123,34,11,39,137,33,04,02,289,26*78
$GPGSV,4,2,16,14,17,036,25,20,74,212,24,23,18,177,23,32,68,084,20*76
$GPGSV,4,3,16,28,08,248,18,31,10,084,15,12,01,000,12,30,,,*45
$GPGSV,4,4,16,29,,,,27,,,,26,,,,25,,,*73
$GPGGA,130618.3,5558.427727,N,00309.891159,W,1,10,0.9,18.9,M,48.0,M,,*7D
$GPVTG,293.3,T,298.9,M,3.1,N,5.7,K,A*22
$GPRMC,130618.3,A,5558.427727,N,00309.891159,W,3.1,293.3,060112,5.6,W,A*0C
$GPGSA,A,3,01,04,11,14,17,20,23,28,31,32,,,1.3,0.9,1.0*34
$GPGSV,4,1,16,01,62,123,36,17,47,282,35,11,38,137,32,20,76,209,24*71
$GPGSV,4,2,16,04,04,289,24,32,67,082,23,14,16,036,21,23,20,177,19*78
$GPGSV,4,3,16,28,07,247,18,12,02,358,12,31,10,082,,30,,,*4A
$GPGSV,4,4,16,29,,,,27,,,,26,,,,25,,,*73
$GPGGA,130619.3,5558.427825,N,00309.893330,W,1,10,1.0,18.4,M,48.0,M,,*7B
$GPVTG,290.5,T,296.1,M,3.1,N,5.7,K,A*21
$GPRMC,130619.3,A,5558.427825,N,00309.893330,W,3.1,290.5,060112,5.6,W,A*0A
$GPGSA,A,3,01,04,11,14,17,20,23,28,31,32,,,1.5,1.0,1.2*38
$GPGSV,4,1,16,17,47,282,38,01,62,123,35,11,38,137,31,04,04,289,27*74
$GPGSV,4,2,16,20,76,209,25,14,16,036,21,32,67,082,20,28,07,247,18*7E
$GPGSV,4,3,16,23,20,177,18,12,02,358,12,31,10,082,,30,,,*44
$GPGSV,4,4,16,29,,,,27,,,,26,,,,25,,,*73
$GPGGA,130620.3,5558.428273,N,00309.895189,W,1,09,1.0,18.7,M,48.0,M,,*7A
$GPVTG,290.8,T,296.4,M,3.0,N,5.6,K,A*29
$GPRMC,130620.3,A,5558.428273,N,00309.895189,W,3.0,290.8,060112,5.6,W,A*0C
$GPGSA,A,3,01,04,11,14,17,20,23,31,32,,,,1.6,1.0,1.2*31
$GPGSV,4,1,16,17,47,282,36,01,62,123,33,11,38,137,29,20,76,209,28*71
$GPGSV,4,2,16,04,04,289,23,14,16,036,21,32,67,082,20,28,07,247,18*73
$GPGSV,4,3,16,23,20,177,18,12,02,358,12,31,10,082,,30,,,*44
$GPGSV,4,4,16,29,,,,27,,,,26,,,,25,,,*73
$GPGGA,130621.3,5558.428375,N,00309.896959,W,1,08,1.0,18.3,M,48.0,M,,*7F
$GPVTG,288.6,T,294.2,M,3.1,N,5.7,K,A*2A
$GPRMC,130621.3,A,5558.428375,N,00309.896959,W,3.1,288.6,060112,5.6,W,A*0A
$GPGSA,A,3,01,04,11,14,17,20,23,32,,,,,1.6,1.0,1.2*33
$GPGSV,4,1,16,17,47,282,37,01,62,123,33,20,76,209,29,11,38,137,27*7F
$GPGSV,4,2,16,04,04,289,24,32,67,082,20,14,16,036,20,28,07,247,18*75
$GPGSV,4,3,16,23,20,177,18,12,02,358,12,31,10,082,,30,,,*44
$GPGSV,4,4,16,29,,,,27,,,,26,,,,25,,,*73
$GPGGA,130622.3,5558.428925,N,00309.898408,W,1,08,1.0,17.7,M,48.0,M,,*7F
$GPVTG,294.1,T,299.7,M,3.1,N,5.7,K,A*28
$GPRMC,130622.3,A,5558.428925,N,00309.898408,W,3.1,294.1,060112,5.6,W,A*0B
$GPGSA,A,3,01,04,11,14,17,20,23,32,,,,,1.6,1.0,1.2*33
$GPGSV,4,1,16,17,47,282,37,01,62,123,33,20,76,209,30,11,38,137,30*71
$GPGSV,4,2,16,04,04,289,26,14,16,036,20,28,07,247,18,23,20,177,18*74
$GPGSV,4,3,16,32,67,082,17,12,02,358,12,31,10,082,,30,,,*43
$GPGSV,4,4,16,29,,,,27,,,,26,,,,25,,,*73
$GPGGA,130623.3,5558.429614,N,00309.899519,W,1,07,1.0,17.7,M,48.0,M,,*7D
$GPVTG,296.6,T,302.2,M,3.0,N,5.5,K,A*28
$GPRMC,130623.3,A,5558.429614,N,00309.899519,W,3.0,296.6,060112,5.6,W,A*02
$GPGSA,A,3,01,04,11,14,17,20,23,,,,,,1.6,1.0,1.2*32
$GPGSV,4,1,16,17,47,282,35,01,62,123,34,20,76,209,31,04,04,289,28*71
$GPGSV,4,2,16,11,38,137,27,14,16,036,19,28,07,247,18,23,20,177,18*72
$GPGSV,4,3,16,32,67,082,18,12,02,358,12,30,,,,29,,,*7E
$GPGSV,4,4,16,27,,,,26,,,,25,,,,24,,,*7E
$GPGGA,130624.3,5558.430048,N,00309.900206,W,1,06,1.0,17.7,M,48.0,M,,*74
$GPVTG,298.1,T,303.7,M,2.7,N,5.0,K,A*26
$GPRMC,130624.3,A,5558.430048,N,00309.900206,W,2.7,298.1,060112,5.6,W,A*05
$GPGSA,A,3,01,04,11,14,17,20,,,,,,,1.6,1.0,1.2*33
$GPGSV,4,1,16,17,47,282,35,01,62,123,33,04,04,289,28,11,38,137,27*77
$GPGSV,4,2,16,20,76,209,27,14,16,036,24,32,67,082,22,23,20,177,18*75
$GPGSV,4,3,16,12,02,358,12,28,07,247,11,30,,,,29,,,*71
$GPGSV,4,4,16,27,,,,26,,,,25,,,,24,,,*7E
$GPGGA,130625.3,5558.430230,N,00309.901008,W,1,06,1.0,18.3,M,48.0,M,,*7E
$GPVTG,298.4,T,304.0,M,2.4,N,4.5,K,A*24
$GPRMC,130625.3,A,5558.430230,N,00309.901008,W,2.4,298.4,060112,5.6,W,A*02
$GPGSA,A,3,01,04,11,14,17,20,,,,,,,1.5,1.0,1.2*30
$GPGSV,4,1,16,17,47,282,40,01,62,123,35,11,38,137,33,20,76,209,32*76
$GPGSV,4,2,16,04,04,289,27,14,16,036,22,32,67,082,19,23,20,177,18*70
$GPGSV,4,3,16,31,10,082,16,12,02,358,12,28,07,247,11,30,,,*44
$GPGSV,4,4,16,29,,,,27,,,,26,,,,25,,,*73
$GPGGA,130626.3,5558.429700,N,00309.902993,W,1,06,0.9,17.9,M,48.0,M,,*76
$GPVTG,287.4,T,293.0,M,2.5,N,4.6,K,A*27
$GPRMC,130626.3,A,5558.429700,N,00309.902993,W,2.5,287.4,060112,5.6,W,A*08
$GPGSA,A,3,01,04,11,14,17,20,,,,,,,1.3,0.9,1.0*3C
$GPGSV,4,1,16,11,38,137,36,20,76,209,35,01,62,123,33,17,47,282,33*76
$GPGSV,4,2,16,04,04,289,28,32,67,082,23,14,16,036,22,31,10,082,17*72
$GPGSV,4,3,16,23,20,177,13,12,02,358,12,28,07,247,11,30,,,*4A
$GPGSV,4,4,16,29,,,,27,,,,26,,,,25,,,*73
$GPGGA,130627.3,5558.430251,N,00309.903493,W,1,06,0.9,17.2,M,48.0,M,,*79
$GPVTG,290.9,T,296.5,M,2.4,N,4.4,K,A*2F
$GPRMC,130627.3,A,5558.430251,N,00309.903493,W,2.4,290.9,060112,5.6,W,A*06
$GPGSA,A,3,01,04,11,14,17,20,,,,,,,1.3,0.9,1.0*3C
$GPGSV,4,1,16,01,62,123,35,20,76,209,33,04,04,289,31,11,38,137,30*7C
$GPGSV,4,2,16,17,47,282,23,14,16,036,23,32,67,082,22,31,10,082,16*76
$GPGSV,4,3,16,23,20,177,13,12,02,358,12,28,07,247,11,30,,,*4A
$GPGSV,4,4,16,29,,,,27,,,,26,,,,25,,,*73
$GPGGA,130628.3,5558.429316,N,00309.905991,W,1,06,0.9,17.1,M,48.0,M,,*76
$GPVTG,280.3,T,285.9,M,2.7,N,5.0,K,A*2C
$GPRMC,130628.3,A,5558.429316,N,00309.905991,W,2.7,280.3,060112,5.6,W,A*02
$GPGSA,A,3,01,04,11,14,17,20,,,,,,,1.3,0.9,1.0*3C
$GPGSV,4,1,16,01,62,123,36,20,76,209,35,17,47,282,31,04,04,289,30*7A
$GPGSV,4,2,16,11,38,137,30,14,16,036,24,32,67,082,21,31,10,082,17*72
$GPGSV,4,3,16,23,20,177,13,12,02,358,12,28,07,247,11,30,,,*4A
$GPGSV,4,4,16,29,,,,27,,,,26,,,,25,,,*73
$GPGGA,130629.3,5558.429222,N,00309.906787,W,1,05,0.9,18.7,M,48.0,M,,*71
$GPVTG,269.8,T,275.4,M,3.1,N,5.7,K,A*22
$GPRMC,130629.3,A,5558.429222,N,00309.906787,W,3.1,269.8,060112,5.6,W,A*04
$GPGSA,A,3,01,04,11,17,20,,,,,,,,1.3,0.9,1.0*39
$GPGSV,4,1,16,01,61,123,33,20,76,209,33,17,47,282,31,11,38,137,28*7E
$GPGSV,4,2,16,04,04,289,27,14,16,036,22,32,67,082,20,23,20,177,13*71
$GPGSV,4,3,16,12,02,358,12,28,06,247,11,30,,,,29,,,*70
$GPGSV,4,4,16,27,,,,26,,,,25,,,,24,,,*7E
$GPGGA,130630.3,5558.429114,N,00309.908655,W,1,07,1.0,19.5,M,48.0,M,,*76
$GPVTG,271.9,T,277.4,M,2.8,N,5.1,K,A*26
$GPRMC,130630.3,A,5558.429114,N,00309.908655,W,2.8,271.9,060112,5.6,W,A*0A
$GPGSA,A,3,01,04,11,14,17,20,32,,,,,,1.5,1.0,1.2*31
$GPGSV,4,1,16,01,63,123,34,20,74,212,34,17,47,285,32,11,39,137,32*7A
$GPGSV,4,2,16,04,02,289,26,14,17,036,23,32,68,084,20,31,10,084,19*78
$GPGSV,4,3,16,23,18,177,13,12,01,000,12,28,08,248,11,30,,,*4C
$GPGSV,4,4,16,29,,,,27,,,,26,,,,25,,,*73
$GPGGA,130631.3,5558.429038,N,00309.910242,W,1,08,0.9,19.4,M,48.0,M,,*75
$GPVTG,273.2,T,278.8,M,2.6,N,4.8,K,A*2A
$GPRMC,130631.3,A,5558.429038,N,00309.910242,W,2.6,273.2,060112,5.6,W,A*08
$GPGSA,A,3,01,04,11,14,17,20,31,32,,,,,1.3,0.9,1.0*3F
$GPGSV,4,1,16,20,76,209,36,17,47,282,35,01,61,123,35,11,38,137,34*74
$GPGSV,4,2,16,04,04,289,27,14,16,036,21,32,67,082,20,31,11,082,19*72
$GPGSV,4,3,16,23,20,177,14,28,06,247,13,12,02,358,,30,,,*4D
$GPGSV,4,4,16,29,,,,27,,,,26,,,,25,,,*73
$GPGGA,130632.3,5558.429459,N,00309.911086,W,1,08,0.9,18.6,M,48.0,M,,*7D
$GPVTG,273.6,T,279.1,M,2.6,N,4.9,K,A*27
$GPRMC,130632.3,A,5558.429459,N,00309.911086,W,2.6,273.6,060112,5.6,W,A*07
$GPGSA,A,3,01,04,11,14,17,20,31,32,,,,,1.3,0.9,1.0*3F
$GPGSV,4,1,16,11,39,137,35,17,47,285,35,20,74,212,34,01,63,123,34*7A
$GPGSV,4,2,16,04,02,289,26,32,68,084,23,14,17,036,23,31,10,084,17*75
$GPGSV,4,3,16,23,18,177,14,28,08,248,13,12,01,000,,30,,,*4A
$GPGSV,4,4,16,29,,,,27,,,,26,,,,25,,,*73
$GPGGA,130633.3,5558.429899,N,00309.912503,W,1,08,0.9,18.6,M,48.0,M,,*77
$GPVTG,275.6,T,281.2,M,2.8,N,5.1,K,A*22
$GPRMC,130633.3,A,5558.429899,N,00309.912503,W,2.8,275.6,060112,5.6,W,A*05
$GPGSA,A,3,01,04,11,14,17,20,31,32,,,,,1.3,0.9,1.0*3F
$GPGSV,4,1,16,17,47,285,33,01,63,123,32,11,39,137,32,20,74,212,32*7B
$GPGSV,4,2,16,14,17,036,25,04,02,289,24,32,68,084,22,31,10,084,18*7F
$GPGSV,4,3,16,23,18,177,17,28,08,248,13,12,01,000,,30,,,*49
$GPGSV,4,4,16,29,,,,27,,,,26,,,,25,,,*73
$GPGGA,130634.3,5558.430944,N,00309.913814,W,1,09,0.9,19.2,M,48.0,M,,*77
$GPVTG,294.9,T,300.5,M,3.1,N,5.8,K,A*2C
$GPRMC,130634.3,A,5558.430944,N,00309.913814,W,3.1,294.9,060112,5.6,W,A*09
$GPGSA,A,3,01,04,11,14,17,20,23,31,32,,,,1.3,0.9,1.0*3E
$GPGSV,4,1,16,17,47,282,36,01,61,123,35,11,38,137,31,20,76,209,31*75
$GPGSV,4,2,16,32,67,082,30,04,04,289,27,14,16,036,20,31,11,082,20*78
$GPGSV,4,3,16,23,20,177,17,28,06,247,13,12,02,358,,30,,,*4E
$GPGSV,4,4,16,29,,,,27,,,,26,,,,25,,,*73
$GPGGA,130635.3,5558.431381,N,00309.915203,W,1,09,0.9,18.9,M,48.0,M,,*74
$GPVTG,282.6,T,288.2,M,3.0,N,5.5,K,A*2E
$GPRMC,130635.3,A,5558.431381,N,00309.915203,W,3.0,282.6,060112,5.6,W,A*09
$GPGSA,A,3,01,04,11,14,17,20,23,31,32,,,,1.3,0.9,1.0*3E
$GPGSV,4,1,16,17,47,282,36,32,67,082,33,01,61,123,32,11,38,137,31*72
$GPGSV,4,2,16,20,76,209,30,14,16,036,27,04,04,289,26,31,11,082,18*77
$GPGSV,4,3,16,28,06,247,13,12,02,358,,23,20,177,,30,,,*48
$GPGSV,4,4,16,29,,,,27,,,,26,,,,25,,,*73
$GPGGA,130636.3,5558.432350,N,00309.916384,W,1,09,1.1,18.2,M,48.0,M,,*77
$GPVTG,293.8,T,299.3,M,2.5,N,4.7,K,A*26
$GPRMC,130636.3,A,5558.432350,N,00309.916384,W,2.5,293.8,060112,5.6,W,A*02
$GPGSA,A,3,01,04,11,14,17,20,23,31,32,,,,1.5,1.1,1.1*30
$GPGSV,4,1,16,01,61,123,33,17,47,282,32,20,76,209,30,32,67,082,29*7B
$GPGSV,4,2,16,14,16,036,29,11,38,137,26,04,04,289,23,31,11,082,20*76
$GPGSV,4,3,16,28,06,247,13,12,02,358,,23,20,177,,30,,,*48
$GPGSV,4,4,16,29,,,,27,,,,26,,,,25,,,*73
$GPGGA,130637.3,5558.430940,N,00309.919351,W,1,10,1.1,18.6,M,48.0,M,,*74
$GPVTG,291.5,T,297.0,M,2.4,N,4.4,K,A*26
$GPRMC,130637.3,A,5558.430940,N,00309.919351,W,2.4,291.5,060112,5.6,W,A*03
$GPGSA,A,3,01,04,11,14,17,20,23,28,31,32,,,1.5,1.1,1.1*3A
$GPGSV,4,1,16,20,76,209,33,17,47,282,31,11,38,137,31,01,61,123,28*7C
$GPGSV,4,2,16,32,67,082,28,04,04,289,26,14,16,036,25,23,20,177,19*75
$GPGSV,4,3,16,31,11,082,19,28,06,247,13,12,02,358,,30,,,*4A
$GPGSV,4,4,16,29,,,,27,,,,26,,,,25,,,*73
$GPGGA,130638.3,5558.431012,N,00309.920605,W,1,10,0.9,19.0,M,48.0,M,,*74
$GPVTG,291.0,T,296.6,M,2.2,N,4.0,K,A*26
$GPRMC,130638.3,A,5558.431012,N,00309.920605,W,2.2,291.0,060112,5.6,W,A*0E
$GPGSA,A,3,01,04,11,14,17,20,23,28,31,32,,,1.3,0.9,1.0*34
$GPGSV,4,1,16,17,47,285,34,20,74,212,32,11,39,137,32,01,63,123,28*77
$GPGSV,4,2,16,32,68,084,25,04,02,289,24,14,17,036,23,31,10,084,21*74
$GPGSV,4,3,16,23,18,177,19,28,08,248,13,12,01,000,,30,,,*47
$GPGSV,4,4,16,29,,,,27,,,,26,,,,25,,,*73
$GPGGA,130639.3,5558.431191,N,00309.922039,W,1,10,0.9,19.4,M,48.0,M,,*70
$GPVTG,289.9,T,295.5,M,2.2,N,4.0,K,A*26
$GPRMC,130639.3,A,5558.431191,N,00309.922039,W,2.2,289.9,060112,5.6,W,A*0E
$GPGSA,A,3,01,04,11,14,17,20,23,28,31,32,,,1.3,0.9,1.0*34
$GPGSV,4,1,16,11,39,137,34,20,74,212,33,17,47,285,30,01,63,123,29*75
$GPGSV,4,2,16,14,17,036,25,32,68,084,24,04,02,289,23,31,10,084,23*76
$GPGSV,4,3,16,23,18,177,20,28,08,248,15,12,01,000,,30,,,*4B
$GPGSV,4,4,16,29,,,,27,,,,26,,,,25,,,*73
$GPGGA,130640.3,5558.431026,N,00309.924239,W,1,10,0.9,20.7,M,48.0,M,,*7E
$GPVTG,289.5,T,295.1,M,3.0,N,5.5,K,A*29
$GPRMC,130640.3,A,5558.431026,N,00309.924239,W,3.0,289.5,060112,5.6,W,A*06
$GPGSA,A,3,01,04,11,14,17,20,23,28,31,32,,,1.3,0.9,1.0*34
$GPGSV,4,1,16,11,38,137,33,01,61,123,32,20,76,209,30,32,67,082,28*79
$GPGSV,4,2,16,17,47,282,28,04,04,289,25,31,11,082,24,14,16,036,21*71
$GPGSV,4,3,16,23,20,177,19,28,06,247,18,12,02,358,,30,,,*4B
$GPGSV,4,4,16,29,,,,27,,,,26,,,,25,,,*73
$GPGGA,130641.3,5558.432197,N,00309.924555,W,1,10,0.9,21.6,M,48.0,M,,*7A
$GPVTG,289.6,T,295.1,M,2.7,N,5.0,K,A*29
$GPRMC,130641.3,A,5558.432197,N,00309.924555,W,2.7,289.6,060112,5.6,W,A*07
$GPGSA,A,3,01,04,11,14,17,20,23,28,31,32,,,1.3,0.9,1.0*34
$GPGSV,4,1,16,17,47,285,34,11,39,137,33,01,63,123,31,20,74,212,31*7D
$GPGSV,4,2,16,32,68,084,29,04,02,289,26,14,17,036,25,31,10,084,25*78
$GPGSV,4,3,16,23,18,177,21,28,08,248,19,12,01,000,,30,,,*46
$GPGSV,4,4,16,29,,,,27,,,,26,,,,25,,,*73
$GPGGA,130642.3,5558.432475,N,00309.925537,W,1,10,0.9,22.6,M,48.0,M,,*76
$GPVTG,290.9,T,296.5,M,2.2,N,4.0,K,A*2D
$GPRMC,130642.3,A,5558.432475,N,00309.925537,W,2.2,290.9,060112,5.6,W,A*0A
$GPGSA,A,3,01,04,11,14,17,20,23,28,31,32,,,1.3,0.9,1.0*34
$GPGSV,4,1,16,11,39,137,37,17,47,285,36,01,63,123,35,20,74,212,33*7D
$GPGSV,4,2,16,32,68,084,30,04,02,289,27,14,17,036,27,31,10,084,24*72
$GPGSV,4,3,16,23,18,177,22,28,08,248,19,12,01,000,,30,,,*45
$GPGSV,4,4,16,29,,,,27,,,,26,,,,25,,,*73
$GPGGA,130643.3,5558.433029,N,00309.926762,W,1,10,0.9,22.1,M,48.0,M,,*7D
$GPVTG,294.7,T,300.3,M,2.7,N,4.9,K,A*23
$GPRMC,130643.3,A,5558.433029,N,00309.926762,W,2.7,294.7,060112,5.6,W,A*09
$GPGSA,A,3,01,04,11,14,17,20,23,28,31,32,,,1.3,0.9,1.0*34
$GPGSV,4,1,16,17,47,282,38,01,61,123,36,20,76,209,32,11,37,137,32*77
$GPGSV,4,2,16,32,67,082,29,04,04,289,28,14,16,036,28,31,11,082,24*73
$GPGSV,4,3,16,23,20,177,22,28,06,247,16,12,02,358,,30,,,*4D
$GPGSV,4,4,16,29,,,,27,,,,26,,,,25,,,*73
$GPGGA,130644.3,5558.433528,N,00309.928258,W,1,10,0.9,22.0,M,48.0,M,,*7D
$GPVTG,294.9,T,300.5,M,2.7,N,5.0,K,A*23
$GPRMC,130644.3,A,5558.433528,N,00309.928258,W,2.7,294.9,060112,5.6,W,A*06
$GPGSA,A,3,01,04,11,14,17,20,23,28,31,32,,,1.3,0.9,1.0*34
$GPGSV,4,1,16,17,47,285,36,01,63,123,32,20,74,212,30,11,39,137,30*7E
$GPGSV,4,2,16,32,68,084,29,04,02,289,25,23,18,177,24,14,17,036,24*7D
$GPGSV,4,3,16,31,10,084,20,28,08,248,16,12,01,000,,30,,,*4E
$GPGSV,4,4,16,29,,,,27,,,,26,,,,25,,,*73
$GPGGA,130645.3,5558.434062,N,00309.929679,W,1,10,0.9,22.0,M,48.0,M,,*76
$GPVTG,295.4,T,301.0,M,2.8,N,5.2,K,A*26
$GPRMC,130645.3,A,5558.434062,N,00309.929679,W,2.8,295.4,060112,5.6,W,A*0E
$GPGSA,A,3,01,04,11,14,17,20,23,28,31,32,,,1.3,0.9,1.0*34
$GPGSV,4,1,16,17,47,285,35,20,74,212,31,01,63,123,31,11,39,137,29*77
$GPGSV,4,2,16,32,68,084,28,04,02,289,26,14,17,036,24,23,18,177,23*78
$GPGSV,4,3,16,31,10,084,21,28,08,248,16,12,01,000,,30,,,*4F
$GPGSV,4,4,16,29,,,,27,,,,26,,,,25,,,*73
$GPGGA,130646.3,5558.434351,N,00309.930759,W,1,10,0.9,21.9,M,48.0,M,,*77
$GPVTG,295.4,T,301.0,M,2.7,N,5.0,K,A*2B
$GPRMC,130646.3,A,5558.434351,N,00309.930759,W,2.7,295.4,060112,5.6,W,A*0A
$GPGSA,A,3,01,04,11,14,17,20,23,28,31,32,,,1.3,0.9,1.0*34
$GPGSV,4,1,16,17,47,285,35,20,74,212,32,01,63,123,31,11,39,137,30*7C
$GPGSV,4,2,16,04,02,289,27,32,68,084,26,14,17,036,26,31,10,084,24*74
$GPGSV,4,3,16,23,18,177,19,28,08,248,16,12,01,000,,30,,,*42
$GPGSV,4,4,16,29,,,,27,,,,26,,,,25,,,*73
$GPGGA,130647.3,5558.434856,N,00309.932325,W,1,10,0.9,21.4,M,48.0,M,,*7A
$GPVTG,295.8,T,301.4,M,2.8,N,5.3,K,A*2F
$GPRMC,130647.3,A,5558.434856,N,00309.932325,W,2.8,295.8,060112,5.6,W,A*09
$GPGSA,A,3,01,04,11,14,17,20,23,28,31,32,,,1.3,0.9,1.0*34
$GPGSV,4,1,16,01,63,123,34,20,74,212,34,17,47,285,34,32,68,084,31*73
$GPGSV,4,2,16,04,02,289,,11,39,137,,12,01,000,,14,17,036,*76
$GPGSV,4,3,16,23,18,177,,28,08,248,,31,10,084,,30,,,*40
$GPGSV,4,4,16,29,,,,27,,,,26,,,,25,,,*73
$GPGGA,130654.5,5558.437836,N,00309.943719,W,1,09,3.9,20.6,M,48.0,M,,*7E
$GPVTG,295.5,T,301.1,M,3.2,N,6.0,K,A*2C
$GPRMC,130654.5,A,5558.437836,N,00309.943719,W,3.2,295.5,060112,5.6,W,A*03
$GPGSA,A,3,01,04,11,14,17,20,23,31,32,,,,4.0,3.9,1.0*3B
$GPGSV,4,1,16,01,63,123,36,17,47,285,31,23,18,177,29,04,02,289,*75
$GPGSV,4,2,16,11,39,137,,12,01,000,,14,17,036,,20,74,212,*73
$GPGSV,4,3,16,28,08,248,,31,10,084,,32,68,084,,30,,,*4A
$GPGSV,4,4,16,29,,,,27,,,,26,,,,25,,,*73
$GPGGA,130715.0,,,,,0,,,,,,,,*79
$GPVTG,,T,,M,,N,,K,N*2C
$GPRMC,,V,,,,,,,,,,N*53
$GPGSA,A,1,,,,,,,,,,,,,,,*1E
$GPGSV,4,1,16,01,63,123,32,17,47,285,31,23,18,177,30,11,39,137,25*74
$GPGSV,4,2,16,20,74,212,22,04,02,289,,12,01,000,,14,17,036,*79
$GPGSV,4,3,16,28,08,248,,31,10,084,,32,68,084,,30,,,*4A
$GPGSV,4,4,16,29,,,,27,,,,26,,,,25,,,*73
$GPGGA,130716.0,5558.455344,N,00309.964579,W,1,05,2.2,18.6,M,48.0,M,,*7A
$GPVTG,317.5,T,323.1,M,3.2,N,6.0,K,A*27
$GPRMC,130716.0,A,5558.455344,N,00309.964579,W,3.2,317.5,060112,5.6,W,A*01
$GPGSA,A,3,01,11,17,20,23,,,,,,,,2.4,2.2,1.0*31
$GPGSV,4,1,16,17,47,285,33,01,63,123,31,23,18,177,26,11,39,137,25*72
$GPGSV,4,2,16,20,74,212,23,04,02,289,20,12,01,000,,14,17,036,*7A
$GPGSV,4,3,16,28,08,248,,31,10,084,,32,68,084,,30,,,*4A
$GPGSV,4,4,16,29,,,,27,,,,26,,,,25,,,*73
$GPGGA,130717.0,5558.454661,N,00309.966186,W,1,06,2.0,18.5,M,48.0,M,,*7C
$GPVTG,304.5,T,310.1,M,2.5,N,4.7,K,A*26
$GPRMC,130717.0,A,5558.454661,N,00309.966186,W,2.5,304.5,060112,5.6,W,A*01
$GPGSA,A,3,01,04,11,17,20,23,,,,,,,2.2,2.0,0.9*39
$GPGSV,4,1,16,01,63,123,37,11,39,137,32,20,74,212,30,17,47,285,30*7F
$GPGSV,4,2,16,23,18,177,26,04,02,289,21,12,01,000,,14,17,036,*77
$GPGSV,4,3,16,28,08,248,,31,10,084,,32,68,084,,30,,,*4A
$GPGSV,4,4,16,29,,,,27,,,,26,,,,25,,,*73
$GPGGA,130718.0,5558.454390,N,00309.967154,W,1,06,2.4,16.5,M,48.0,M,,*7C
$GPVTG,298.1,T,303.6,M,2.5,N,4.6,K,A*22
$GPRMC,130718.0,A,5558.454390,N,00309.967154,W,2.5,298.1,060112,5.6,W,A*0B
$GPGSA,A,3,01,04,11,17,20,23,,,,,,,2.9,2.4,1.8*36
$GPGSV,4,1,16,01,63,123,37,20,74,212,33,17,47,285,31,11,39,137,29*77
$GPGSV,4,2,16,04,02,289,27,23,18,177,24,12,01,000,,14,17,036,*73
$GPGSV,4,3,16,28,08,248,,31,10,084,,32,68,084,,30,,,*4A
$GPGSV,4,4,16,29,,,,27,,,,26,,,,25,,,*73
$GPGGA,130719.0,5558.456320,N,00309.967810,W,1,06,2.4,12.2,M,48.0,M,,*7E
$GPVTG,300.0,T,305.6,M,2.6,N,4.8,K,A*28
$GPRMC,130719.0,A,5558.456320,N,00309.967810,W,2.6,300.0,060112,5.6,W,A*08
$GPGSA,A,3,01,04,11,17,20,23,,,,,,,2.9,2.4,1.8*36
$GPGSV,4,1,16,20,76,208,31,01,61,123,27,11,37,137,27,17,47,282,26*7E
$GPGSV,4,2,16,04,04,291,22,23,20,177,21,12,02,358,,14,16,036,*7B
$GPGSV,4,3,16,28,06,247,,31,11,082,,32,67,081,,30,,,*46
$GPGSV,4,4,16,29,,,,27,,,,26,,,,25,,,*73
$GPGGA,130720.0,5558.456961,N,00309.968264,W,1,06,2.4,11.8,M,48.0,M,,*74
$GPVTG,298.9,T,304.5,M,2.5,N,4.7,K,A*2F
$GPRMC,130720.0,A,5558.456961,N,00309.968264,W,2.5,298.9,060112,5.6,W,A*01
$GPGSA,A,3,01,04,11,17,20,23,,,,,,,2.9,2.4,1.8*36
$GPGSV,4,1,16,11,39,137,33,01,63,123,33,20,74,212,28,17,47,285,27*75
$GPGSV,4,2,16,23,18,177,21,04,02,289,20,12,01,000,,14,17,036,*71
$GPGSV,4,3,16,28,08,248,,31,10,084,,32,68,084,,30,,,*4A
$GPGSV,4,4,16,29,,,,27,,,,26,,,,25,,,*73
$GPGGA,130721.0,5558.457315,N,00309.968493,W,1,06,2.4,11.4,M,48.0,M,,*7F
$GPVTG,300.3,T,305.9,M,2.5,N,4.6,K,A*29
$GPRMC,130721.0,A,5558.457315,N,00309.968493,W,2.5,300.3,060112,5.6,W,A*0C
$GPGSA,A,3,01,04,11,17,20,23,,,,,,,2.9,2.4,1.8*36
$GPGSV,4,1,16,11,39,137,33,01,63,123,33,17,47,285,31,20,74,212,27*7D
$GPGSV,4,2,16,04,02,289,22,23,18,177,19,12,01,000,,14,17,036,*78
$GPGSV,4,3,16,28,08,248,,31,10,084,,32,68,084,,30,,,*4A
$GPGSV,4,4,16,29,,,,27,,,,26,,,,25,,,*73
$GPGGA,130722.0,5558.457211,N,00309.969611,W,1,06,2.4,11.3,M,48.0,M,,*77
$GPVTG,295.9,T,301.4,M,2.4,N,4.5,K,A*25
$GPRMC,130722.0,A,5558.457211,N,00309.969611,W,2.4,295.9,060112,5.6,W,A*05
$GPGSA,A,3,01,04,11,17,20,23,,,,,,,2.9,2.4,1.8*36
$GPGSV,4,1,16,01,63,123,33,17,47,285,33,11,39,137,30,20,74,212,26*7D
$GPGSV,4,2,16,23,18,177,25,04,02,289,21,12,01,000,,14,17,036,*74
$GPGSV,4,3,16,28,08,248,,31,10,084,,32,68,084,,30,,,*4A
$GPGSV,4,4,16,29,,,,27,,,,26,,,,25,,,*73
$GPGGA,130723.0,5558.455585,N,00309.973603,W,1,06,2.4,13.5,M,48.0,M,,*72
$GPVTG,266.2,T,271.8,M,3.4,N,6.2,K,A*2C
$GPRMC,130723.0,A,5558.455585,N,00309.973603,W,3.4,266.2,060112,5.6,W,A*02
$GPGSA,A,3,01,04,11,17,20,23,,,,,,,2.9,2.4,1.8*36
$GPGSV,4,1,16,01,61,123,33,17,47,282,31,23,20,177,30,11,37,137,30*71
$GPGSV,4,2,16,20,76,208,26,04,04,291,22,12,02,358,,14,16,036,*77
$GPGSV,4,3,16,28,06,247,,31,11,082,,32,67,081,,30,,,*46
$GPGSV,4,4,16,29,,,,27,,,,26,,,,25,,,*73
$GPGGA,130724.0,5558.453849,N,00309.975937,W,1,06,2.4,13.8,M,48.0,M,,*7D
$GPVTG,291.8,T,297.4,M,3.2,N,6.0,K,A*2E
$GPRMC,130724.0,A,5558.453849,N,00309.975937,W,3.2,291.8,060112,5.6,W,A*04
$GPGSA,A,3,01,04,11,17,20,23,,,,,,,2.9,2.4,1.8*36
$GPGSV,4,1,16,23,20,177,31,17,47,282,29,01,61,123,29,20,76,208,28*73
$GPGSV,4,2,16,04,04,291,25,11,37,137,24,12,02,358,,14,16,036,*7A
$GPGSV,4,3,16,28,06,247,,31,11,082,,32,67,081,,30,,,*46
$GPGSV,4,4,16,29,,,,27,,,,26,,,,25,,,*73
$GPGGA,130725.0,5558.455113,N,00309.975741,W,1,06,2.4,12.6,M,48.0,M,,*7C
$GPVTG,291.1,T,296.7,M,3.1,N,5.8,K,A*2D
$GPRMC,130725.0,A,5558.455113,N,00309.975741,W,3.1,291.1,060112,5.6,W,A*00
$GPGSA,A,3,01,04,11,17,20,23,,,,,,,2.9,2.4,1.8*36
$GPGSV,4,1,16,17,47,282,32,01,61,123,31,23,20,177,31,04,04,291,26*7D
$GPGSV,4,2,16,11,37,137,24,20,76,208,21,12,02,358,,14,16,036,*7D
$GPGSV,4,3,16,28,06,247,,31,11,082,,32,67,081,,30,,,*46
$GPGSV,4,4,16,29,,,,27,,,,26,,,,25,,,*73
$GPGGA,130726.0,5558.455275,N,00309.977280,W,1,06,2.4,12.2,M,48.0,M,,*72
$GPVTG,291.1,T,296.6,M,2.9,N,5.5,K,A*28
$GPRMC,130726.0,A,5558.455275,N,00309.977280,W,2.9,291.1,060112,5.6,W,A*03
$GPGSA,A,3,01,04,11,17,20,23,,,,,,,2.9,2.4,1.8*36
$GPGSV,4,1,16,17,47,285,33,01,63,123,28,11,39,137,26,04,02,289,25*76
$GPGSV,4,2,16,20,74,212,24,23,18,177,24,12,01,000,14,14,17,036,*70
$GPGSV,4,3,16,28,08,248,,31,10,084,,32,68,084,,30,,,*4A
$GPGSV,4,4,16,29,,,,27,,,,26,,,,25,,,*73
$GPGGA,130727.0,5558.455505,N,00309.978469,W,1,06,2.4,12.3,M,48.0,M,,*7C
$GPVTG,290.1,T,295.7,M,2.8,N,5.2,K,A*2D
$GPRMC,130727.0,A,5558.455505,N,00309.978469,W,2.8,290.1,060112,5.6,W,A*0C
$GPGSA,A,3,01,04,11,17,20,23,,,,,,,2.9,2.4,1.8*36
$GPGSV,4,1,16,17,47,285,33,20,74,212,28,01,63,123,24,11,39,137,22*76
$GPGSV,4,2,16,04,02,289,22,23,18,177,20,12,01,000,14,14,17,036,*77
$GPGSV,4,3,16,28,08,248,,31,10,084,,32,68,084,,30,,,*4A
$GPGSV,4,4,16,29,,,,27,,,,26,,,,25,,,*73
$GPGGA,130728.0,5558.455691,N,00309.979316,W,1,06,2.4,12.7,M,48.0,M,,*77
$GPVTG,289.3,T,294.9,M,2.5,N,4.5,K,A*23
$GPRMC,130728.0,A,5558.455691,N,00309.979316,W,2.5,289.3,060112,5.6,W,A*04
$GPGSA,A,3,01,04,11,17,20,23,,,,,,,2.9,2.4,1.8*36
$GPGSV,4,1,16,01,63,123,29,17,47,285,28,11,39,137,25,20,74,212,24*7A
$GPGSV,4,2,16,04,02,289,24,23,18,177,22,12,01,000,14,14,17,036,*73
$GPGSV,4,3,16,28,08,248,,31,10,084,,32,68,084,,30,,,*4A
$GPGSV,4,4,16,29,,,,27,,,,26,,,,25,,,*73
$GPGGA,130729.0,5558.455890,N,00309.980548,W,1,06,2.4,12.5,M,48.0,M,,*70
$GPVTG,283.4,T,288.9,M,2.3,N,4.3,K,A*23
$GPRMC,130729.0,A,5558.455890,N,00309.980548,W,2.3,283.4,060112,5.6,W,A*0A
$GPGSA,A,3,01,04,11,17,20,23,,,,,,,2.9,2.4,1.8*36
$GPGSV,4,1,16,04,04,291,29,20,76,208,28,01,61,123,28,11,37,137,27*71
$GPGSV,4,2,16,17,47,282,24,23,20,177,20,12,02,358,14,14,16,036,*7E
$GPGSV,4,3,16,28,06,247,,31,11,082,,32,67,081,,30,,,*46
$GPGSV,4,4,16,29,,,,27,,,,26,,,,25,,,*73
$GPGGA,130730.0,5558.456621,N,00309.981858,W,1,06,2.4,11.0,M,48.0,M,,*74
$GPVTG,281.5,T,287.1,M,2.6,N,4.9,K,A*28
$GPRMC,130730.0,A,5558.456621,N,00309.981858,W,2.6,281.5,060112,5.6,W,A*0E
$GPGSA,A,3,01,04,11,17,20,23,,,,,,,2.9,2.4,1.8*36
$GPGSV,4,1,16,01,63,123,29,17,47,285,29,20,74,212,28,04,02,289,28*70
$GPGSV,4,2,16,11,39,137,25,23,18,177,21,12,01,000,14,14,17,036,*7B
$GPGSV,4,3,16,28,08,248,,31,10,084,,32,68,084,,30,,,*4A
$GPGSV,4,4,16,29,,,,27,,,,26,,,,25,,,*73
$GPGGA,130731.0,5558.457727,N,00309.983334,W,1,06,2.4,10.3,M,48.0,M,,*72
$GPVTG,286.1,T,291.7,M,2.8,N,5.2,K,A*2E
$GPRMC,130731.0,A,5558.457727,N,00309.983334,W,2.8,286.1,060112,5.6,W,A*07
$GPGSA,A,3,01,04,11,17,20,23,,,,,,,2.9,2.4,1.8*36
$GPGSV,4,1,16,20,74,212,31,01,63,123,30,11,39,137,28,17,47,285,27*74
$GPGSV,4,2,16,04,02,289,24,23,18,177,19,12,01,000,14,14,17,036,*7B
$GPGSV,4,3,16,28,08,248,,31,10,084,,32,68,084,,30,,,*4A
$GPGSV,4,4,16,29,,,,27,,,,26,,,,25,,,*73
$GPGGA,130732.0,5558.457776,N,00309.985183,W,1,06,2.4,10.6,M,48.0,M,,*78
$GPVTG,285.4,T,290.9,M,2.8,N,5.3,K,A*26
$GPRMC,130732.0,A,5558.457776,N,00309.985183,W,2.8,285.4,060112,5.6,W,A*0E
$GPGSA,A,3,01,04,11,17,20,23,,,,,,,2.9,2.4,1.8*36
$GPGSV,4,1,16,11,39,137,32,01,63,123,32,17,47,285,31,20,74,212,28*72
$GPGSV,4,2,16,04,02,289,24,23,18,177,20,32,68,084,15,12,01,000,14*70
$GPGSV,4,3,16,14,17,036,,28,08,248,,31,10,084,,30,,,*4F
$GPGSV,4,4,16,29,,,,27,,,,26,,,,25,,,*73
$GPGGA,130733.0,5558.458247,N,00309.984966,W,1,07,1.9,10.0,M,48.0,M,,*7A
$GPVTG,290.4,T,296.0,M,2.4,N,4.5,K,A*26
$GPRMC,130733.0,A,5558.458247,N,00309.984966,W,2.4,290.4,060112,5.6,W,A*0D
$GPGSA,A,3,01,04,11,17,20,23,32,,,,,,2.6,1.9,1.7*39
$GPGSV,4,1,16,01,63,123,34,11,39,137,33,17,47,285,31,20,74,212,29*74
$GPGSV,4,2,16,04,02,289,19,23,18,177,18,32,68,084,15,12,01,000,14*75
$GPGSV,4,3,16,14,17,036,,28,08,248,,31,10,084,,30,,,*4F
$GPGSV,4,4,16,29,,,,27,,,,26,,,,25,,,*73
$GPGGA,130734.0,5558.457967,N,00309.986483,W,1,07,1.9,10.1,M,48.0,M,,*7E
$GPVTG,286.2,T,291.8,M,2.3,N,4.2,K,A*28
$GPRMC,130734.0,A,5558.457967,N,00309.986483,W,2.3,286.2,060112,5.6,W,A*0E
$GPGSA,A,3,01,04,11,17,20,23,32,,,,,,2.6,1.9,1.7*39
$GPGSV,4,1,16,01,63,123,33,11,39,137,33,17,47,285,31,20,74,212,30*7B
$GPGSV,4,2,16,23,18,177,24,04,02,289,17,32,68,084,15,12,01,000,14*74
$GPGSV,4,3,16,14,17,036,,28,08,248,,31,10,084,,30,,,*4F
$GPGSV,4,4,16,29,,,,27,,,,26,,,,25,,,*73
$GPGGA,130735.0,5558.458671,N,00309.986322,W,1,07,1.9,10.3,M,48.0,M,,*76
$GPVTG,293.5,T,299.1,M,2.1,N,3.9,K,A*24
$GPRMC,130735.0,A,5558.458671,N,00309.986322,W,2.1,293.5,060112,5.6,W,A*05
$GPGSA,A,3,01,04,11,17,20,23,32,,,,,,2.6,1.9,1.7*39
$GPGSV,4,1,16,01,61,123,36,20,76,208,34,17,47,282,32,04,04,291,*70
$GPGSV,4,2,16,11,37,137,,12,02,358,,14,16,036,,23,20,177,*73
$GPGSV,4,3,16,28,06,247,,31,11,082,,32,67,081,,30,,,*46
$GPGSV,4,4,16,29,,,,27,,,,26,,,,25,,,*73
$GPGGA,130742.2,,,,,0,,,,,,,,*79
$GPVTG,,T,,M,,N,,K,N*2C
$GPRMC,,V,,,,,,,,,,N*53
$GPGSA,A,1,,,,,,,,,,,,,,,*1E
$GPGSV,4,1,16,01,61,123,37,11,37,137,35,20,76,208,34,17,47,282,32*7C
$GPGSV,4,2,16,04,04,291,,12,02,358,,14,16,036,,23,20,177,*78
$GPGSV,4,3,16,28,06,247,,31,11,082,,32,67,081,,30,,,*46
$GPGSV,4,4,16,29,,,,27,,,,26,,,,25,,,*73
$GPGGA,130743.2,5558.460382,N,00309.997778,W,1,06,6.6,13.0,M,48.0,M,,*75
$GPVTG,282.7,T,288.3,M,3.1,N,5.7,K,A*2D
$GPRMC,130743.2,A,5558.460382,N,00309.997778,W,3.1,282.7,060112,5.6,W,A*0C
$GPGSA,A,3,01,04,11,17,20,23,,,,,,,6.6,6.6,1.0*33
$GPGSV,4,1,16,01,61,123,36,20,76,208,33,11,37,137,31,17,47,282,30*7C
$GPGSV,4,2,16,04,04,291,,12,02,358,,14,16,036,,23,20,177,*78
$GPGSV,4,3,16,28,06,247,,31,11,082,,32,67,081,,30,,,*46
$GPGSV,4,4,16,29,,,,27,,,,26,,,,25,,,*73
$GPGGA,130744.2,5558.460758,N,00309.999777,W,1,06,6.6,12.1,M,48.0,M,,*70
$GPVTG,282.0,T,287.6,M,3.3,N,6.1,K,A*27
$GPRMC,130744.2,A,5558.460758,N,00309.999777,W,3.3,282.0,060112,5.6,W,A*0C
$GPGSA,A,3,01,04,11,17,20,23,,,,,,,6.6,6.6,1.0*33
$GPGSV,4,1,16,17,47,282,36,11,37,137,29,20,76,208,27,01,61,123,27*76
$GPGSV,4,2,16,04,04,291,20,23,20,177,16,12,02,358,,14,16,036,*7D
$GPGSV,4,3,16,28,06,247,,31,11,082,,32,67,081,,30,,,*46
$GPGSV,4,4,16,29,,,,27,,,,26,,,,25,,,*73
$GPGGA,130745.2,5558.461749,N,00310.001990,W,1,06,2.3,11.8,M,48.0,M,,*7C
$GPVTG,288.0,T,293.6,M,3.5,N,6.4,K,A*2B
$GPRMC,130745.2,A,5558.461749,N,00310.001990,W,3.5,288.0,060112,5.6,W,A*07
$GPGSA,A,3,01,04,11,17,20,23,,,,,,,2.9,2.3,1.8*31
$GPGSV,4,1,16,17,47,285,36,20,74,212,31,11,39,137,26,01,63,123,24*7F
$GPGSV,4,2,16,04,02,289,23,23,18,177,17,12,01,000,,14,17,036,*77
$GPGSV,4,3,16,28,08,248,,31,10,084,,30,,,,29,,,*72
$GPGSV,4,4,16,27,,,,26,,,,25,,,,24,,,*7E
$GPGGA,130746.2,5558.462338,N,00310.003802,W,1,06,2.3,11.2,M,48.0,M,,*7C
$GPVTG,287.7,T,293.3,M,3.4,N,6.3,K,A*20
$GPRMC,130746.2,A,5558.462338,N,00310.003802,W,3.4,287.7,060112,5.6,W,A*04
$GPGSA,A,3,01,04,11,17,20,23,,,,,,,2.9,2.3,1.8*31
$GPGSV,4,1,16,17,47,284,38,20,75,210,30,04,03,289,28,01,62,123,27*75
$GPGSV,4,2,16,11,38,137,26,23,19,177,16,12,02,000,,14,17,036,*7A
$GPGSV,4,3,16,28,07,248,,31,10,082,,30,,,,29,,,*7B
$GPGSV,4,4,16,27,,,,26,,,,25,,,,24,,,*7E
$GPGGA,130748.2,5558.461664,N,00310.008513,W,1,06,2.3,11.0,M,48.0,M,,*79
$GPVTG,275.5,T,281.1,M,3.4,N,6.3,K,A*2E
$GPRMC,130748.2,A,5558.461664,N,00310.008513,W,3.4,275.5,060112,5.6,W,A*0C
$GPGSA,A,3,01,04,11,17,20,23,,,,,,,2.9,2.3,1.8*31
$GPGSV,4,1,16,17,47,282,37,23,20,177,33,11,37,137,31,01,61,123,28*7F
$GPGSV,4,2,16,20,77,208,26,32,66,081,23,04,04,291,19,14,16,036,17*7E
$GPGSV,4,3,16,12,02,358,,28,06,247,,31,11,082,,30,,,*40
$GPGSV,4,4,16,29,,,,27,,,,26,,,,25,,,*73
$GPGGA,130757.4,5558.468652,N,00310.013610,W,1,06,1.0,10.5,M,48.0,M,,*73
$GPVTG,342.2,T,347.8,M,2.6,N,4.8,K,A*24
$GPRMC,130757.4,A,5558.468652,N,00310.013610,W,2.6,342.2,060112,5.6,W,A*03
$GPGSA,A,3,01,04,11,17,20,23,,,,,,,1.6,1.0,1.2*37
$GPGSV,4,1,16,17,47,282,36,11,37,137,30,01,61,123,25,20,77,208,23*79
$GPGSV,4,2,16,23,20,177,22,32,66,081,20,04,04,291,19,14,16,036,19*7D
$GPGSV,4,3,16,12,02,358,,28,06,247,,31,11,082,,30,,,*40
$GPGSV,4,4,16,29,,,,27,,,,26,,,,25,,,*73
$GPGGA,130758.4,5558.469017,N,00310.015821,W,1,06,1.0,10.8,M,48.0,M,,*7D
$GPVTG,339.0,T,344.6,M,2.8,N,5.1,K,A*21
$GPRMC,130758.4,A,5558.469017,N,00310.015821,W,2.8,339.0,060112,5.6,W,A*00
$GPGSA,A,3,01,04,11,17,20,23,,,,,,,1.6,1.0,1.2*37
$GPGSV,4,1,16,23,20,177,35,17,48,281,34,20,77,208,29,01,61,123,*7C
$GPGSV,4,2,16,04,04,291,,11,37,137,,12,02,358,,14,16,036,*7B
$GPGSV,4,3,16,28,06,247,,31,11,082,,32,66,081,,30,,,*47
$GPGSV,4,4,16,29,,,,27,,,,26,,,,25,,,*73
$GPGGA,130816.0,,,,,0,,,,,,,,*75
$GPVTG,,T,,M,,N,,K,N*2C
$GPRMC,,V,,,,,,,,,,N*53
$GPGSA,A,1,,,,,,,,,,,,,,,*1E
$GPGSV,4,1,16,17,48,281,32,23,20,177,31,11,37,137,31,01,61,123,27*7B
$GPGSV,4,2,16,14,16,036,26,20,77,208,26,32,66,081,25,31,11,082,24*76
$GPGSV,4,3,16,04,04,291,,12,02,358,,28,06,247,,30,,,*42
$GPGSV,4,4,16,29,,,,27,,,,26,,,,25,,,*73
$GPGGA,130817.0,5558.472182,N,00310.041675,W,1,08,1.2,6.8,M,48.0,M,,*4F
$GPVTG,297.7,T,303.3,M,1.7,N,3.1,K,A*2F
$GPRMC,130817.0,A,5558.472182,N,00310.041675,W,1.7,297.7,060112,5.6,W,A*07
$GPGSA,A,3,01,11,14,17,20,23,31,32,,,,,1.9,1.2,1.4*3E
$GPGSV,4,1,16,23,20,177,34,17,48,281,31,11,37,137,29,14,16,036,28*7A
$GPGSV,4,2,16,32,66,081,27,01,61,123,26,20,77,208,26,31,11,082,22*73
$GPGSV,4,3,16,04,04,291,,12,02,358,,28,06,247,,30,,,*42
$GPGSV,4,4,16,29,,,,27,,,,26,,,,25,,,*73
$GPGGA,130818.0,5558.474217,N,00310.044341,W,1,08,1.2,5.9,M,48.0,M,,*4C
$GPVTG,313.5,T,319.1,M,1.7,N,3.2,K,A*2A
$GPRMC,130818.0,A,5558.474217,N,00310.044341,W,1.7,313.5,060112,5.6,W,A*09
$GPGSA,A,3,01,11,14,17,20,23,31,32,,,,,1.9,1.2,1.4*3E
$GPGSV,4,1,16,11,38,137,30,23,19,177,27,32,68,082,26,20,75,210,26*7D
$GPGSV,4,2,16,14,17,036,26,01,62,123,24,17,47,284,24,31,10,082,23*7C
$GPGSV,4,3,16,04,03,289,,12,02,000,,28,07,248,,30,,,*4C
$GPGSV,4,4,16,29,,,,27,,,,26,,,,25,,,*73
$GPGGA,130819.0,5558.475269,N,00310.044791,W,1,08,1.2,5.3,M,48.0,M,,*46
$GPVTG,322.3,T,327.9,M,1.5,N,2.7,K,A*2D
$GPRMC,130819.0,A,5558.475269,N,00310.044791,W,1.5,322.3,060112,5.6,W,A*0F
$GPGSA,A,3,01,11,14,17,20,23,31,32,,,,,1.9,1.2,1.4*3E
$GPGSV,4,1,16,14,17,036,29,11,38,137,28,23,19,177,27,32,68,082,26*7E
$GPGSV,4,2,16,01,62,123,26,20,75,210,24,31,10,082,20,17,47,284,18*75
$GPGSV,4,3,16,04,03,289,,12,02,000,,28,07,248,,30,,,*4C
$GPGSV,4,4,16,29,,,,27,,,,26,,,,25,,,*73
$GPGGA,130820.0,5558.476281,N,00310.044632,W,1,08,1.2,3.2,M,48.0,M,,*46
$GPVTG,322.3,T,327.9,M,1.1,N,2.1,K,A*2F
$GPRMC,130820.0,A,5558.476281,N,00310.044632,W,1.1,322.3,060112,5.6,W,A*0C
$GPGSA,A,3,01,11,14,17,20,23,31,32,,,,,1.9,1.2,1.5*3F
$GPGSV,4,1,16,23,19,177,32,14,17,036,29,32,68,082,27,01,62,123,27*7F
$GPGSV,4,2,16,11,38,137,26,20,75,210,23,31,10,082,18,17,47,284,18*72
$GPGSV,4,3,16,04,03,289,,12,02,000,,28,07,248,,30,,,*4C
$GPGSV,4,4,16,29,,,,27,,,,26,,,,25,,,*73
$GPGGA,130821.0,5558.477157,N,00310.045970,W,1,08,1.2,-0.5,M,48.0,M,,*6F
$GPVTG,292.4,T,298.0,M,1.7,N,3.2,K,A*2A
$GPRMC,130821.0,A,5558.477157,N,00310.045970,W,1.7,292.4,060112,5.6,W,A*07
$GPGSA,A,3,01,11,14,17,20,23,31,32,,,,,1.9,1.2,1.5*3F
$GPGSV,4,1,16,01,60,125,,04,05,291,,11,36,137,,12,03,358,*7F
$GPGSV,4,2,16,14,15,036,,17,48,281,,20,77,206,,23,21,177,*78
$GPGSV,4,3,16,28,06,247,,31,11,081,,32,66,081,,30,,,*44
$GPGSV,4,4,16,29,,,,27,,,,26,,,,25,,,*73
$GPGGA,130905.9,,,,,0,,,,,,,,*7F
$GPVTG,,T,,M,,N,,K,N*2C
$GPRMC,,V,,,,,,,,,,N*53
$GPGSA,A,1,,,,,,,,,,,,,,,*1E
$GPGSV,4,1,16,01,60,125,,04,05,291,,11,36,137,,12,03,358,*7F
$GPGSV,4,2,16,14,15,036,,17,48,281,,20,77,206,,23,21,177,*78
$GPGSV,4,3,16,28,06,247,,31,11,081,,32,66,081,,30,,,*44
$GPGSV,4,4,16,29,,,,27,,,,26,,,,25,,,*73
$GPGGA,130906.9,,,,,0,,,,,,,,*7C
$GPVTG,,T,,M,,N,,K,N*2C
$GPRMC,,V,,,,,,,,,,N*53
$GPGSA,A,1,,,,,,,,,,,,,,,*1E
$GPGSV,4,1,16,32,66,081,25,01,60,125,24,11,36,137,21,04,05,291,*7B
$GPGSV,4,2,16,12,03,358,,14,15,036,,17,48,281,,20,77,206,*75
$GPGSV,4,3,16,23,21,177,,28,06,247,,31,11,081,,30,,,*4F
$GPGSV,4,4,16,29,,,,27,,,,26,,,,25,,,*73
$GPGGA,130908.4,,,,,0,,,,,,,,*7F
$GPVTG,,T,,M,,N,,K,N*2C
$GPRMC,,V,,,,,,,,,,N*53
$GPGSA,A,1,,,,,,,,,,,,,,,*1E
$GPGSV,4,1,16,32,66,081,28,14,15,036,26,01,60,125,24,28,06,247,24*75
$GPGSV,4,2,16,23,21,177,23,11,36,137,22,17,48,281,17,20,77,206,16*7C
$GPGSV,4,3,16,04,05,291,,12,03,358,,31,11,081,,30,,,*44
$GPGSV,4,4,16,29,,,,27,,,,26,,,,25,,,*73
$GPGGA,130909.4,,,,,0,,,,,,,,*7E
$GPVTG,,T,,M,,N,,K,N*2C
$GPRMC,,V,,,,,,,,,,N*53
$GPGSA,A,1,,,,,,,,,,,,,,,*1E
$GPGSV,4,1,16,32,66,081,25,01,60,125,25,14,15,036,23,28,06,247,23*7B
$GPGSV,4,2,16,11,36,137,22,23,21,177,20,31,11,081,18,17,48,281,16*7D
$GPGSV,4,3,16,20,77,206,15,04,05,291,,12,03,358,,30,,,*4D
$GPGSV,4,4,16,29,,,,27,,,,26,,,,25,,,*73
$GPGGA,130910.4,,,,,0,,,,,,,,*76
$GPVTG,,T,,M,,N,,K,N*2C
$GPRMC,,V,,,,,,,,,,N*53
$GPGSA,A,1,,,,,,,,,,,,,,,*1E
$GPGSV,4,1,16,32,68,082,28,14,17,036,22,11,38,137,22,01,62,123,21*7A
$GPGSV,4,2,16,23,19,177,20,31,10,082,18,28,07,248,18,17,47,284,16*74
$GPGSV,4,3,16,04,03,289,,12,02,000,,30,,,,29,,,*74
$GPGSV,4,4,16,27,,,,26,,,,25,,,,24,,,*7E
$GPGGA,130911.4,5558.518326,N,00309.983613,W,1,09,1.0,15.2,M,48.0,M,,*79
$GPVTG,17.7,T,23.3,M,0.8,N,1.5,K,A*2C
$GPRMC,130911.4,A,5558.518326,N,00309.983613,W,0.8,17.7,060112,5.6,W,A*3E
$GPGSA,A,3,01,11,14,17,20,23,28,31,32,,,,1.6,1.0,1.2*3F
$GPGSV,4,1,16,14,17,036,27,32,68,082,27,28,07,248,23,01,62,123,23*7E
$GPGSV,4,2,16,11,38,137,20,23,19,177,20,31,10,082,18,17,47,284,17*73
$GPGSV,4,3,16,04,03,289,,12,02,000,,30,,,,29,,,*74
$GPGSV,4,4,16,27,,,,26,,,,25,,,,24,,,*7E
$GPGGA,130912.4,5558.518993,N,00309.984714,W,1,09,1.0,20.7,M,48.0,M,,*7C
$GPVTG,17.7,T,23.3,M,1.1,N,2.0,K,A*22
$GPRMC,130912.4,A,5558.518993,N,00309.984714,W,1.1,17.7,060112,5.6,W,A*30
$GPGSA,A,3,01,11,14,17,20,23,28,31,32,,,,1.6,1.0,1.2*3F
$GPGSV,4,1,16,32,68,082,27,14,17,036,23,11,38,137,22,01,62,123,22*77
$GPGSV,4,2,16,28,07,248,20,23,19,177,20,31,10,082,19,17,47,284,16*7E
$GPGSV,4,3,16,04,03,289,,12,02,000,,30,,,,29,,,*74
$GPGSV,4,4,16,27,,,,26,,,,25,,,,24,,,*7E
$GPGGA,130913.4,5558.519826,N,00309.987562,W,1,09,1.0,22.1,M,48.0,M,,*77
$GPVTG,17.7,T,23.3,M,0.7,N,1.4,K,A*22
$GPRMC,130913.4,A,5558.519826,N,00309.987562,W,0.7,17.7,060112,5.6,W,A*38
$GPGSA,A,3,01,11,14,17,20,23,28,31,32,,,,1.6,1.0,1.2*3F
$GPGSV,4,1,16,32,68,082,27,11,38,137,23,01,62,123,23,14,17,036,22*76
$GPGSV,4,2,16,28,07,248,20,23,19,177,20,31,10,082,19,17,47,284,16*7E
$GPGSV,4,3,16,20,75,210,14,04,03,289,,12,02,000,,30,,,*49
$GPGSV,4,4,16,29,,,,27,,,,26,,,,25,,,*73
$GPGGA,130914.4,5558.522062,N,00309.990870,W,1,09,1.0,25.2,M,48.0,M,,*7C
$GPVTG,17.7,T,23.3,M,0.9,N,1.7,K,A*2F
$GPRMC,130914.4,A,5558.522062,N,00309.990870,W,0.9,17.7,060112,5.6,W,A*39
$GPGSA,A,3,01,11,14,17,20,23,28,31,32,,,,1.4,1.0,1.1*3E
$GPGSV,4,1,16,32,68,082,28,11,38,137,25,31,10,082,25,01,62,123,23*77
$GPGSV,4,2,16,14,17,036,20,28,07,248,17,17,47,284,16,20,75,210,15*72
$GPGSV,4,3,16,23,19,177,13,04,03,289,,12,02,000,,30,,,*45
$GPGSV,4,4,16,29,,,,27,,,,26,,,,25,,,*73
$GPGGA,130915.4,5558.524174,N,00309.995305,W,1,09,1.0,30.7,M,48.0,M,,*70
$GPVTG,17.7,T,23.3,M,0.7,N,1.3,K,A*25
$GPRMC,130915.4,A,5558.524174,N,00309.995305,W,0.7,17.7,060112,5.6,W,A*3A
$GPGSA,A,3,01,11,14,17,20,23,28,31,32,,,,1.4,1.0,1.1*3E
$GPGSV,4,1,16,31,10,082,27,32,68,082,26,01,62,123,22,11,38,137,21*7E
$GPGSV,4,2,16,28,07,248,19,14,17,036,18,17,47,284,16,20,75,210,15*77
$GPGSV,4,3,16,23,19,177,13,04,03,289,,12,02,000,,30,,,*45
$GPGSV,4,4,16,29,,,,27,,,,26,,,,25,,,*73
$GPGGA,130916.4,5558.523985,N,00309.995182,W,1,09,1.0,29.8,M,48.0,M,,*78
$GPVTG,17.7,T,23.3,M,0.6,N,1.1,K,A*26
$GPRMC,130916.4,A,5558.523985,N,00309.995182,W,0.6,17.7,060112,5.6,W,A*34
$GPGSA,A,3,01,11,14,17,20,23,28,31,32,,,,1.4,1.0,1.1*3E
$GPGSV,4,1,16,31,10,082,27,32,68,082,25,11,38,137,22,01,62,123,21*7D
$GPGSV,4,2,16,28,07,248,19,14,17,036,18,17,47,284,15,20,75,210,15*74
$GPGSV,4,3,16,23,19,177,13,04,03,289,,12,02,000,,30,,,*45
$GPGSV,4,4,16,29,,,,27,,,,26,,,,25,,,*73
$GPGGA,130917.4,5558.524437,N,00309.996530,W,1,09,1.0,31.5,M,48.0,M,,*70
$GPVTG,17.7,T,23.3,M,0.7,N,1.2,K,A*24
$GPRMC,130917.4,A,5558.524437,N,00309.996530,W,0.7,17.7,060112,5.6,W,A*39
$GPGSA,A,3,01,11,14,17,20,23,28,31,32,,,,1.4,1.0,1.1*3E
$GPGSV,4,1,16,01,61,123,,04,04,289,,11,38,137,,12,02,358,*7F
$GPGSV,4,2,16,14,16,036,,17,47,282,,20,76,209,,23,20,177,*78
$GPGSV,4,3,16,28,06,247,,31,11,082,,32,67,082,,30,,,*45
$GPGSV,4,4,16,29,,,,27,,,,26,,,,25,,,*73
$GPGGA,130931.1,,,,,0,,,,,,,,*70
$GPVTG,,T,,M,,N,,K,N*2C
$GPRMC,,V,,,,,,,,,,N*53
$GPGSA,A,1,,,,,,,,,,,,,,,*1E
$GPGSV,4,1,16,32,67,082,24,01,61,123,,04,04,289,,11,38,137,*7C
$GPGSV,4,2,16,12,02,358,,14,16,036,,17,47,282,,20,76,209,*75
$GPGSV,4,3,16,23,20,177,,28,06,247,,31,11,082,,30,,,*4D
$GPGSV,4,4,16,29,,,,27,,,,26,,,,25,,,*73
$GPGGA,130932.1,,,,,0,,,,,,,,*73
$GPVTG,,T,,M,,N,,K,N*2C
$GPRMC,,V,,,,,,,,,,N*53
$GPGSA,A,1,,,,,,,,,,,,,,,*1E
$GPGSV,4,1,16,32,67,082,28,31,11,082,23,01,61,123,21,28,06,247,21*79
$GPGSV,4,2,16,04,04,289,,11,38,137,,12,02,358,,14,16,036,*7D
$GPGSV,4,3,16,17,47,282,,20,76,209,,23,20,177,,30,,,*4D
$GPGSV,4,4,16,29,,,,27,,,,26,,,,25,,,*73
$GPGGA,130933.6,,,,,0,,,,,,,,*75
$GPVTG,,T,,M,,N,,K,N*2C
$GPRMC,,V,,,,,,,,,,N*53
$GPGSA,A,1,,,,,,,,,,,,,,,*1E
$GPGSV,4,1,16,32,67,082,24,01,61,123,24,31,11,082,21,20,76,209,17*72
$GPGSV,4,2,16,28,06,247,17,11,38,137,17,04,04,289,,12,02,358,*77
$GPGSV,4,3,16,14,16,036,,17,47,282,,23,20,177,,30,,,*42
$GPGSV,4,4,16,29,,,,27,,,,26,,,,25,,,*73
$GPGGA,130934.6,,,,,0,,,,,,,,*72
$GPVTG,,T,,M,,N,,K,N*2C
$GPRMC,,V,,,,,,,,,,N*53
$GPGSA,A,1,,,,,,,,,,,,,,,*1E
$GPGSV,4,1,16,32,67,082,26,31,11,082,20,01,61,123,18,20,76,209,17*7E
$GPGSV,4,2,16,11,38,137,16,28,06,247,16,04,04,289,,12,02,358,*77
$GPGSV,4,3,16,14,16,036,,17,47,282,,23,20,177,,30,,,*42
$GPGSV,4,4,16,29,,,,27,,,,26,,,,25,,,*73
$GPGGA,130935.6,5558.523797,N,00310.001754,W,1,06,2.0,35.5,M,48.0,M,,*7B
$GPVTG,17.7,T,23.3,M,0.0,N,0.0,K,A*20
$GPRMC,130935.6,A,5558.523797,N,00310.001754,W,0.0,17.7,060112,5.6,W,A*3D
$GPGSA,A,3,01,11,20,28,31,32,,,,,,,2.3,2.0,1.2*38
$GPGSV,4,1,16,32,66,081,27,01,60,125,26,31,11,081,20,20,77,206,17*7A
$GPGSV,4,2,16,17,48,281,17,11,36,137,17,28,05,247,16,04,05,291,*7B
$GPGSV,4,3,16,12,03,358,,14,15,036,,23,21,177,,30,,,*43
$GPGSV,4,4,16,29,,,,27,,,,26,,,,25,,,*73
$GPGGA,130936.6,5558.523804,N,00310.001659,W,1,07,1.6,35.6,M,48.0,M,,*76
$GPVTG,17.7,T,23.3,M,0.0,N,0.0,K,A*20
$GPRMC,130936.6,A,5558.523804,N,00310.001659,W,0.0,17.7,060112,5.6,W,A*37
$GPGSA,A,3,01,11,17,20,28,31,32,,,,,,2.0,1.6,1.2*38
$GPGSV,4,1,16,01,60,125,27,32,66,081,27,11,36,137,19,31,11,081,18*78
$GPGSV,4,2,16,20,77,206,18,17,48,281,18,28,05,247,16,14,15,036,14*77
$GPGSV,4,3,16,04,05,291,,12,03,358,,23,21,177,,30,,,*4C
$GPGSV,4,4,16,29,,,,27,,,,26,,,,25,,,*73
$GPGGA,130937.6,5558.523915,N,00310.001780,W,1,08,1.1,35.8,M,48.0,M,,*75
$GPVTG,17.7,T,23.3,M,0.0,N,0.0,K,A*20
$GPRMC,130937.6,A,5558.523915,N,00310.001780,W,0.0,17.7,060112,5.6,W,A*32
$GPGSA,A,3,01,11,14,17,20,28,31,32,,,,,1.6,1.1,1.1*3C
$GPGSV,4,1,16,17,48,281,33,01,60,125,,04,05,291,,11,36,137,*70
$GPGSV,4,2,16,12,03,358,,14,15,036,,20,77,205,,23,21,177,*74
$GPGSV,4,3,16,28,05,247,,31,11,081,,32,66,081,,30,,,*47
$GPGSV,4,4,16,29,,,,27,,,,26,,,,25,,,*73
$GPGGA,130945.7,,,,,0,,,,,,,,*75
$GPVTG,,T,,M,,N,,K,N*2C
$GPRMC,,V,,,,,,,,,,N*53
$GPGSA,A,1,,,,,,,,,,,,,,,*1E
$GPGSV,4,1,16,17,48,281,28,32,66,081,27,20,77,205,24,11,36,137,20*7C
$GPGSV,4,2,16,01,60,125,,04,05,291,,12,03,358,,14,15,036,*78
$GPGSV,4,3,16,23,21,177,,28,05,247,,31,11,081,,30,,,*4C
$GPGSV,4,4,16,29,,,,27,,,,26,,,,25,,,*73
$GPGGA,130946.7,,,,,0,,,,,,,,*76
$GPVTG,,T,,M,,N,,K,N*2C
$GPRMC,,V,,,,,,,,,,N*53
$GPGSA,A,1,,,,,,,,,,,,,,,*1E
$GPGSV,4,1,16,32,66,081,27,20,77,205,25,17,48,281,23,01,60,125,21*76
$GPGSV,4,2,16,11,36,137,20,31,11,081,18,04,05,291,,12,03,358,*7D
$GPGSV,4,3,16,14,15,036,,23,21,177,,28,05,247,,30,,,*43
$GPGSV,4,4,16,29,,,,27,,,,26,,,,25,,,*73
$GPGGA,130947.7,5558.536892,N,00310.041634,W,1,06,2.0,26.9,M,48.0,M,,*7C
$GPVTG,300.1,T,305.7,M,3.1,N,5.8,K,A*2F
$GPRMC,130947.7,A,5558.536892,N,00310.041634,W,3.1,300.1,060112,5.6,W,A*05
$GPGSA,A,3,01,11,17,20,31,32,,,,,,,2.9,2.0,2.1*3E
$GPGSV,4,1,16,01,60,125,,04,05,291,,11,36,137,,12,03,358,*7F
$GPGSV,4,2,16,14,15,036,,17,48,281,,20,77,205,,23,21,177,*7B
$GPGSV,4,3,16,28,05,247,,31,11,081,,32,66,081,,30,,,*47
$GPGSV,4,4,16,29,,,,27,,,,26,,,,25,,,*73
$GPGGA,130954.9,,,,,0,,,,,,,,*7B
$GPVTG,,T,,M,,N,,K,N*2C
$GPRMC,,V,,,,,,,,,,N*53
$GPGSA,A,1,,,,,,,,,,,,,,,*1E
$GPGSV,4,1,16,32,66,081,24,01,60,125,,04,05,291,,11,36,137,*7F
$GPGSV,4,2,16,12,03,358,,14,15,036,,17,48,281,,20,77,205,*76
$GPGSV,4,3,16,23,21,177,,28,05,247,,31,12,081,,30,,,*4F
$GPGSV,4,4,16,29,,,,27,,,,26,,,,25,,,*73
$GPGGA,130955.9,5558.537897,N,00310.049671,W,1,07,666.6,26.9,M,48.0,M,,*7F
$GPVTG,313.4,T,313.4,M,0.0,N,0.0,K,A*23
$GPRMC,130955.9,A,5558.537897,N,00310.049671,W,0.0,313.4,060112,,,A*7A
$GPGSA,A,3,01,11,17,20,23,31,32,,,,,,666.6,666.6,666.6*35
$GPGSV,4,1,16,17,47,282,31,32,67,082,26,01,61,123,21,11,38,137,19*79
$GPGSV,4,2,16,04,04,289,,12,02,358,,14,16,036,,20,76,209,*7B
$GPGSV,4,3,16,23,20,177,,28,06,247,,31,11,082,,30,,,*4D
$GPGSV,4,4,16,29,,,,27,,,,26,,,,25,,,*73
$GPGGA,130956.9,5558.537848,N,00310.051781,W,1,07,2.8,26.3,M,48.0,M,,*79
$GPVTG,313.4,T,319.0,M,0.0,N,0.0,K,A*2D
$GPRMC,130956.9,A,5558.537848,N,00310.051781,W,0.0,313.4,060112,5.6,W,A*06
$GPGSA,A,3,01,11,17,20,23,31,32,,,,,,3.0,2.8,1.0*3D
$GPGSV,4,1,16,17,48,281,30,32,66,081,28,14,15,036,20,11,36,137,19*75
$GPGSV,4,2,16,01,60,125,19,23,21,177,16,04,05,291,,12,03,358,*70
$GPGSV,4,3,16,20,77,205,,28,05,247,,31,12,081,,30,,,*49
$GPGSV,4,4,16,29,,,,27,,,,26,,,,25,,,*73
$GPGGA,130957.9,5558.537127,N,00310.053670,W,1,08,1.2,25.5,M,48.0,M,,*76
$GPVTG,313.4,T,319.0,M,0.0,N,0.0,K,A*2D
$GPRMC,130957.9,A,5558.537127,N,00310.053670,W,0.0,313.4,060112,5.6,W,A*0A
$GPGSA,A,3,01,11,14,17,20,23,31,32,,,,,2.1,1.2,1.7*36
$GPGSV,4,1,16,17,47,282,34,32,67,082,26,14,16,036,22,20,76,209,21*73
$GPGSV,4,2,16,23,20,177,19,01,61,123,18,11,38,137,15,04,04,289,*74
$GPGSV,4,3,16,12,02,358,,28,06,247,,31,11,082,,30,,,*40
$GPGSV,4,4,16,29,,,,27,,,,26,,,,25,,,*73
$GPGGA,130958.9,5558.536721,N,00310.055083,W,1,07,1.2,25.2,M,48.0,M,,*7C
$GPVTG,313.4,T,319.0,M,0.0,N,0.0,K,A*2D
$GPRMC,130958.9,A,5558.536721,N,00310.055083,W,0.0,313.4,060112,5.6,W,A*08
$GPGSA,A,3,01,11,14,17,20,23,32,,,,,,2.0,1.2,1.6*34
$GPGSV,4,1,16,17,47,282,36,20,76,209,26,32,67,082,22,14,16,036,21*71
$GPGSV,4,2,16,23,20,177,20,01,61,123,20,04,04,289,15,31,11,082,15*77
$GPGSV,4,3,16,11,38,137,,12,02,358,,28,06,247,,30,,,*46
$GPGSV,4,4,16,29,,,,27,,,,26,,,,25,,,*73
$GPGGA,130959.9,5558.536825,N,00310.056151,W,1,07,1.0,24.5,M,48.0,M,,*7F
$GPVTG,313.4,T,319.0,M,0.0,N,0.0,K,A*2D
$GPRMC,130959.9,A,5558.536825,N,00310.056151,W,0.0,313.4,060112,5.6,W,A*0F
$GPGSA,A,3,01,11,14,17,20,23,32,,,,,,1.5,1.0,1.1*37
$GPGSV,4,1,16,17,47,282,32,20,76,209,26,32,67,082,25,14,16,036,19*79
$GPGSV,4,2,16,23,20,177,19,01,61,123,19,04,04,289,15,31,11,082,15*77
$GPGSV,4,3,16,11,38,137,,12,02,358,,28,06,247,,30,,,*46
$GPGSV,4,4,16,29,,,,27,,,,26,,,,25,,,*73
$GPGGA,131000.9,5558.536909,N,00310.056658,W,1,09,1.0,24.4,M,48.0,M,,*75
$GPVTG,286.5,T,292.0,M,2.1,N,3.9,K,A*2A
$GPRMC,131000.9,A,5558.536909,N,00310.056658,W,2.1,286.5,060112,5.6,W,A*05
$GPGSA,A,3,01,04,11,14,17,20,23,31,32,,,,1.5,1.0,1.1*31
$GPGSV,4,1,16,17,47,282,28,20,76,209,27,23,20,177,26,32,67,082,24*7B
$GPGSV,4,2,16,01,61,123,23,14,16,036,20,11,38,137,17,04,04,289,16*76
$GPGSV,4,3,16,31,11,082,14,12,02,358,,28,06,247,,30,,,*45
$GPGSV,4,4,16,29,,,,27,,,,26,,,,25,,,*73
$GPGGA,131001.9,5558.540093,N,00310.061277,W,1,09,0.9,25.9,M,48.0,M,,*76
$GPVTG,285.2,T,290.8,M,2.1,N,3.8,K,A*25
$GPRMC,131001.9,A,5558.540093,N,00310.061277,W,2.1,285.2,060112,5.6,W,A*06
$GPGSA,A,3,01,04,11,14,17,20,23,31,32,,,,1.5,0.9,1.1*39
$GPGSV,4,1,16,32,67,082,26,20,76,209,24,01,61,123,24,17,47,282,22*76
$GPGSV,4,2,16,23,20,177,19,11,38,137,17,14,16,036,17,04,04,289,15*7C
$GPGSV,4,3,16,31,11,082,14,12,02,358,,28,06,247,,30,,,*45
$GPGSV,4,4,16,29,,,,27,,,,26,,,,25,,,*73
$GPGGA,131002.9,5558.539717,N,00310.064140,W,1,09,0.9,25.3,M,48.0,M,,*78
$GPVTG,284.2,T,289.7,M,1.9,N,3.5,K,A*25
$GPRMC,131002.9,A,5558.539717,N,00310.064140,W,1.9,284.2,060112,5.6,W,A*08
$GPGSA,A,3,01,04,11,14,17,20,23,31,32,,,,1.5,0.9,1.1*39
$GPGSV,4,1,16,20,76,209,24,32,67,082,24,23,20,177,22,17,47,282,21*75
$GPGSV,4,2,16,01,61,123,21,14,16,036,21,11,38,137,17,04,04,289,15*76
$GPGSV,4,3,16,31,11,082,14,12,02,358,,28,06,247,,30,,,*45
$GPGSV,4,4,16,29,,,,27,,,,26,,,,25,,,*73
$GPGGA,131003.9,5558.538373,N,00310.065564,W,1,09,0.9,26.8,M,48.0,M,,*75
$GPVTG,284.2,T,289.7,M,1.4,N,2.6,K,A*2A
$GPRMC,131003.9,A,5558.538373,N,00310.065564,W,1.4,284.2,060112,5.6,W,A*00
$GPGSA,A,3,01,04,11,14,17,20,23,31,32,,,,1.5,0.9,1.1*39
$GPGSV,4,1,16,32,67,082,25,20,76,209,25,01,61,123,23,14,16,036,21*7A
$GPGSV,4,2,16,17,47,282,21,23,20,177,18,11,38,137,17,04,04,289,15*72
$GPGSV,4,3,16,31,11,082,14,12,02,358,,28,06,247,,30,,,*45
$GPGSV,4,4,16,29,,,,27,,,,26,,,,25,,,*73
$GPGGA,131004.9,5558.538830,N,00310.066069,W,1,09,0.9,26.7,M,48.0,M,,*7A
$GPVTG,284.2,T,289.7,M,0.0,N,0.0,K,A*2B
$GPRMC,131004.9,A,5558.538830,N,00310.066069,W,0.0,284.2,060112,5.6,W,A*05
$GPGSA,A,3,01,04,11,14,17,20,23,31,32,,,,1.5,0.9,1.1*39
$GPGSV,4,1,16,20,76,209,25,32,67,082,23,01,61,123,21,14,16,036,20*7F
$GPGSV,4,2,16,17,47,282,19,23,20,177,19,11,38,137,17,04,04,289,16*7B
$GPGSV,4,3,16,31,11,082,14,12,02,358,,28,06,247,,30,,,*45
$GPGSV,4,4,16,29,,,,27,,,,26,,,,25,,,*73
$GPGGA,131005.9,5558.538449,N,00310.066551,W,1,09,0.9,26.8,M,48.0,M,,*78
$GPVTG,284.2,T,289.7,M,0.0,N,0.0,K,A*2B
$GPRMC,131005.9,A,5558.538449,N,00310.066551,W,0.0,284.2,060112,5.6,W,A*08
$GPGSA,A,3,01,04,11,14,17,20,23,31,32,,,,1.5,0.9,1.1*39
$GPGSV,4,1,16,32,66,080,26,01,60,125,,04,05,291,,11,36,137,*7C
$GPGSV,4,2,16,12,03,358,,14,15,035,,17,48,281,,20,77,205,*75
$GPGSV,4,3,16,23,21,177,,28,05,247,,31,12,081,,30,,,*4F
$GPGSV,4,4,16,29,,,,27,,,,26,,,,25,,,*73
$GPGGA,131013.1,5558.539645,N,00310.069086,W,1,09,666.6,28.2,M,48.0,M,,*75
$GPVTG,284.2,T,284.2,M,0.0,N,0.0,K,A*23
$GPRMC,131013.1,A,5558.539645,N,00310.069086,W,0.0,284.2,060112,,,A*72
$GPGSA,A,3,01,04,11,14,17,20,23,31,32,,,,666.6,666.6,666.6*34
$GPGSV,4,1,16,32,66,080,28,01,60,125,27,20,77,205,27,11,36,137,25*7B
$GPGSV,4,2,16,04,05,291,23,14,15,035,23,12,03,358,,17,48,281,*7B
$GPGSV,4,3,16,23,21,177,,28,05,247,,31,12,081,,30,,,*4F
$GPGSV,4,4,16,29,,,,27,,,,26,,,,25,,,*73
$GPGGA,131014.1,5558.540139,N,00310.069043,W,1,09,1.5,27.9,M,48.0,M,,*79
$GPVTG,284.2,T,289.7,M,0.0,N,0.0,K,A*2B
$GPRMC,131014.1,A,5558.540139,N,00310.069043,W,0.0,284.2,060112,5.6,W,A*04
$GPGSA,A,3,01,04,11,14,17,20,23,31,32,,,,2.3,1.5,1.7*37
$GPGSV,4,1,16,32,66,080,26,20,77,205,26,01,60,125,23,04,05,291,22*7C
$GPGSV,4,2,16,14,15,035,22,11,36,137,20,23,21,177,18,17,48,281,18*7F
